ADDRESS,SUBURB,PRICE,BEDROOMS,BATHROOMS,GARAGE,LAND_AREA,FLOOR_AREA,BUILD_YEAR,CBD_DIST,NEAREST_STN,NEAREST_STN_DIST,DATE_SOLD,POSTCODE,LATITUDE,LONGITUDE,NEAREST_SCH,NEAREST_SCH_DIST,NEAREST_SCH_RANK
1 Acorn Place,South Lake,565000,4,2,2.0,600,160,2003.0,18300,Cockburn Central Station,1800,"09-2018",6164,-32.1159,115.84245,LAKELAND SENIOR HIGH SCHOOL,0.8283385518162787,
1 Addis Way,Wandi,365000,3,2,2.0,351,139,2013.0,26900,Kwinana Station,4900,"02-2019",6167,-32.19347028,115.8595535,ATWELL COLLEGE,5.524324354371822,129.0
1 Ainsley Court,Camillo,287000,3,1,1.0,719,86,1979.0,22600,Challis Station,1900,"06-2015",6111,-32.12057813,115.993579,KELMSCOTT SENIOR HIGH SCHOOL,1.649178183366986,113.0
1 Albert Street,Bellevue,255000,2,1,2.0,651,59,1953.0,17900,Midland Station,3600,"07-2018",6056,-31.90054675,116.0380088,SWAN VIEW SENIOR HIGH SCHOOL,1.5714009366124688,
1 Aman Place,Lockridge,325000,4,1,2.0,466,131,1998.0,11200,Bassendean Station,2000,"11-2016",6054,-31.88579,115.94778,KIARA COLLEGE,1.5149216294528034,
1 Amethyst Crescent,Mount Richon,409000,4,2,1.0,759,118,1991.0,27300,Armadale Station,1000,"03-2013",6112,-32.1538014,116.0236578,ARMADALE SENIOR HIGH SCHOOL,1.227219194399204,
1 Ardara Lane,Hilbert,400000,3,2,2.0,386,132,2014.0,28200,Armadale Station,3700,"05-2016",6112,-32.17997786,115.9886473,DALE CHRISTIAN SCHOOL,2.485730857063224,
1 Arnside Bend,Waikiki,370000,4,2,2.0,468,158,2013.0,41700,Warnbro Station,1100,"03-2019",6169,-32.31766224,115.7619682,SOUTH COAST BAPTIST COLLEGE,0.4915731383363828,
1 Arrochar Court,Hamersley,565000,4,2,3.0,875,168,1983.0,12100,Warwick Station,2500,"06-2020",6022,-31.84775987,115.8227005,WARWICK SENIOR HIGH SCHOOL,1.2219275931111655,
1 Arundel Street,Bayswater,685000,3,2,8.0,552,126,1999.0,5900,Bayswater Station,508,"10-2019",6053,-31.91788,115.90705,CHISHOLM CATHOLIC COLLEGE,0.936243264888652,29.0
1 Ash Road,Carmel,675000,4,2,6.0,2538,241,1977.0,22900,Madding,10700,"07-2014",6076,-32.01574,116.08891,CARMEL ADVENTIST COLLEGE,0.4964007594795787,
1 Ashcott Gate,Butler,367500,3,2,2.0,398,158,2003.0,36300,Butler Station,2100,"11-2018",6036,-31.65428,115.7022,BUTLER COLLEGE,0.6808433268155856,39.0
1 Ashcroft Way,Balga,300000,3,2,2.0,243,94,2008.0,11500,Warwick Station,4800,"12-2019",6061,-31.84964681,115.846314,BALGA SENIOR HIGH SCHOOL,0.1893503137159569,
1 Ashendon Boulevard,Hammond Park,535000,4,2,4.0,704,247,2002.0,23100,Cockburn Central Station,3900,"07-2019",6164,-32.15959,115.84948,ATWELL COLLEGE,2.2206426655498723,129.0
1 Ashtree Boulevard,Wattle Grove,540000,4,2,2.0,614,186,2004.0,13100,Madding,5100,"05-2018",6107,-32.00294817,115.9836459,REHOBOTH CHRISTIAN COLLEGE,3.2343986089606025,
1 August Court,Bull Creek,685000,3,2,3.0,706,196,1985.0,12500,Murdoch Station,961,"11-2017",6149,-32.06458,115.86046,LEEMING SENIOR HIGH SCHOOL,1.1833626029374116,89.0
1 Avonlea Place,Bullsbrook,350000,4,2,2.0,663,154,1994.0,36700,Midland Station,26000,"11-2017",6084,-31.66068818,116.0407159,HOLY CROSS COLLEGE,14.013548390601851,98.0
1 Babbler Court,Maida Vale,570000,4,2,2.0,568,225,2003.0,15300,Midland Station,7000,"10-2020",6057,-31.95242,116.0207,DARLING RANGE SPORTS COLLEGE,2.746772139797852,137.0
1 Balga Place,Koongamia,318000,2,1,3.0,751,90,1959.0,18100,Midland Station,4100,"05-2013",6056,-31.90409,116.04213,SWAN VIEW SENIOR HIGH SCHOOL,1.8592465386914536,
1 Bamlett Street,Mount Nasura,379000,3,2,3.0,785,167,1977.0,25400,Challis Station,1300,"08-2017",6112,-32.13247,116.0242,SOWILO COMMUNITY HIGH SCHOOL,1.3641957547366643,
1 Banken Court,Forrestdale,387500,4,1,1.0,782,111,1981.0,23300,Armadale Station,6600,"04-2017",6112,-32.14885,115.94308,CAREY BAPTIST COLLEGE,4.204627996200461,62.0
1 Barcroft Court,Atwell,465000,4,2,2.0,450,173,2000.0,20700,Cockburn Central Station,1600,"08-2017",6164,-32.13768,115.86697,ATWELL COLLEGE,0.7471080892276758,129.0
1 Bates Loop,Lockridge,325000,3,1,1.0,421,93,1972.0,11800,Success Hill Station,1900,"08-2014",6054,-31.88355668,115.9542319,KIARA COLLEGE,1.930504981792736,
1 Batoni Way,Ashby,515000,3,2,2.0,388,160,2007.0,25000,Joondalup Station,3300,"09-2014",6065,-31.7328966,115.7996371,WANNEROO SECONDARY COLLEGE,3.141444909009006,131.0
1 Bayley Street,Woodbridge,610000,3,1,1.0,550,121,1920.0,14600,Woodbridge Station,275,"04-2013",6056,-31.88948,115.99427,GOVERNOR STIRLING SENIOR HIGH SCHOOL,0.5195732638053656,130.0
1 Beach Street,Bicton,1950000,5,2,2.0,855,305,1981.0,10800,North Fremantle Station,2900,"10-2018",6157,-32.02366,115.78189,SANTA MARIA COLLEGE,1.4288256583640708,10.0
1 Beacon Way,Singleton,420000,4,2,2.0,600,295,2006.0,54500,Mandurah Station,10400,"01-2015",6175,-32.434584,115.758448,COMET BAY COLLEGE,2.1320305200513947,35.0
1 Beenan Elbow,South Guildford,347500,3,1,3.0,452,88,,13100,East Guildford Station,1400,"08-2018",6055,-31.90698,115.98698,GUILDFORD GRAMMAR SCHOOL,1.5178108452820758,52.0
1 Belfry Way,Wattle Grove,492000,4,2,2.0,459,250,2012.0,14100,Madding,5100,"11-2017",6107,-32.00415385,115.9949594,HERITAGE COLLEGE PERTH,3.374077197496846,
1 Bell Court,Armadale,201000,3,1,2.0,711,99,1985.0,27500,Armadale Station,1300,"02-2019",6112,-32.164115,116.0083927,ARMADALE SENIOR HIGH SCHOOL,0.6307358201923885,
1 Bellata Place,Kenwick,275000,3,1,1.0,570,108,1996.0,15500,Madding,1900,"04-2018",6107,-32.03406,115.99137,REHOBOTH CHRISTIAN COLLEGE,1.296626334289668,
1 Bellier Place,Hamilton Hill,410000,4,2,1.0,808,155,1983.0,16700,Fremantle Station,5800,"12-2019",6163,-32.08948,115.78811,PORT SCHOOL,1.173982946797674,
1 Belmont Close,Port Kennedy,315000,4,2,2.0,550,127,1999.0,46800,Warnbro Station,4300,"12-2020",6172,-32.36259,115.7517,WARNBRO COMMUNITY HIGH SCHOOL,2.016747892191808,
1 Belvedere Rise,Roleystone,795000,4,3,6.0,2095,254,,27300,Kelmscott Station,5800,"10-2017",6111,-32.11535746,116.0748618,KELMSCOTT SENIOR HIGH SCHOOL,6.04955388249433,113.0
1 Benowa Drive,Glen Forrest,600000,4,2,4.0,2028,222,1988.0,24000,Midland Station,10400,"08-2015",6071,-31.91039,116.10841,HELENA COLLEGE,1.6349241820962144,78.0
1 Bianco Place,Secret Harbour,400000,4,2,2.0,672,186,2002.0,50400,Warnbro Station,7900,"09-2019",6173,-32.39686,115.75637,COMET BAY COLLEGE,2.1973149440264903,35.0
1 Bignell Place,Herne Hill,350000,3,1,2.0,797,177,1974.0,20900,Midland Station,7600,"08-2013",6056,-31.82521,116.02121,SWAN CHRISTIAN COLLEGE,3.788223562883484,93.0
1 Bindoon Close,Gwelup,835000,4,2,2.0,480,170,1998.0,10800,Warwick Station,2800,"06-2016",6018,-31.86994,115.79768,BALCATTA SENIOR HIGH SCHOOL,1.5090079879697609,135.0
1 Binnia Mews,Harrisdale,482000,4,2,2.0,469,152,2008.0,19000,Cockburn Central Station,5700,"11-2020",6112,-32.11598945,115.9173273,CAREY BAPTIST COLLEGE,1.784415085505154,62.0
1 Binns Court,North Fremantle,1260000,3,3,2.0,354,227,2000.0,12900,North Fremantle Station,387,"11-2016",6159,-32.02689,115.75382,IONA PRESENTATION COLLEGE,2.427821858858271,17.0
1 Bishops Close,Quinns Rocks,405000,3,2,4.0,781,156,1989.0,34800,Butler Station,3800,"03-2019",6030,-31.66895,115.70455,PETER MOYES ANGLICAN COMMUNITY SCHOOL,0.774913817309598,55.0
1 Bittern Close,Maida Vale,465000,3,2,2.0,620,143,2002.0,14800,Midland Station,7300,"07-2019",6057,-31.95549,116.01601,DARLING RANGE SPORTS COLLEGE,2.295611113645283,137.0
1 Blato Place,Spearwood,560000,5,2,2.0,592,168,1996.0,19800,Cockburn Central Station,7500,"12-2018",6163,-32.11658806,115.7790863,PORT SCHOOL,3.736130486068356,
1 Bohemia Way,Parkwood,380000,3,1,2.0,979,122,1978.0,11300,Thornlie Station,4400,"05-2016",6147,-32.0459,115.90519,LYNWOOD SENIOR HIGH SCHOOL,1.1228906301327497,96.0
1 Boncath Road,Butler,360000,3,2,2.0,397,130,2006.0,38000,Butler Station,372,"12-2020",6036,-31.638689,115.700206,BUTLER COLLEGE,1.6522015339628773,39.0
1 Bonita Way,Tapping,540000,4,2,2.0,641,221,2005.0,26900,Currambine Station,4800,"03-2018",6065,-31.71607737,115.7997715,JOSEPH BANKS SECONDARY COLLEGE,1.9590164130110144,92.0
1 Boronia Court,Thornlie,420000,3,2,2.0,680,163,1991.0,16200,Thornlie Station,3400,"06-2020",6108,-32.07705,115.94632,THORNLIE SENIOR HIGH SCHOOL,1.735659975664515,125.0
1 Borough Road,Baldivis,330000,4,2,2.0,495,171,2011.0,45500,Warnbro Station,5600,"12-2020",6171,-32.36170962,115.8136691,TRANBY COLLEGE,2.668401882053026,62.0
1 Bourke Street,Kensington,705000,3,1,6.0,774,132,1952.0,4500,Oats Street Station,3200,"10-2017",6151,-31.98792,115.88137,KENT STREET SENIOR HIGH SCHOOL,1.093286046042056,93.0
1 Bowood Cove,Kiara,615000,4,2,2.0,818,247,1994.0,10900,Bassendean Station,2600,"03-2016",6054,-31.88124,115.93878,KIARA COLLEGE,0.5464288811907199,
1 Bradbury Road,Hamilton Hill,565000,3,2,2.0,775,151,1960.0,15500,Fremantle Station,4800,"05-2020",6163,-32.07693,115.78611,SETON CATHOLIC COLLEGE,0.8307663583413691,91.0
1 Bradford Street,Menora,850000,3,1,1.0,917,120,1959.0,3500,Mount Lawley Station,2100,"10-2013",6050,-31.92056,115.86557,MOUNT LAWLEY SENIOR HIGH SCHOOL,0.4013905888710384,20.0
1 Bradstocks Grove,Southern River,780000,4,2,2.0,447,305,2015.0,18600,Thornlie Station,5800,"09-2018",6110,-32.0993486,115.9525676,PROVIDENCE CHRISTIAN COLLEGE,1.4963495341523,38.0
1 Bramley Way,Bibra Lake,520000,3,3,2.0,358,154,2001.0,17100,Cockburn Central Station,3900,"03-2018",6163,-32.10379,115.82631,PERTH WALDORF SCHOOL,1.526177504053366,
1 Brassey Street,Swanbourne,1100000,3,1,1.0,619,150,1945.0,8800,Swanbourne Station,658,"12-2016",6010,-31.97685,115.76985,SCOTCH COLLEGE,0.5714538835012237,24.0
1 Brentwood Way,The Vines,590000,5,2,2.0,834,246,2004.0,26400,Midland Station,15600,"03-2020",6069,-31.75123,116.00693,HOLY CROSS COLLEGE,3.964054248621698,98.0
1 Brilliant Rise,Stratton,312000,4,2,3.0,561,101,1993.0,19400,Midland Station,4400,"08-2018",6056,-31.86829,116.03838,SWAN VIEW SENIOR HIGH SCHOOL,2.207307702135043,
1 Briston Place,North Beach,900000,3,2,3.0,372,213,2008.0,13400,Warwick Station,3400,"08-2016",6020,-31.86096794,115.7663678,CARINE SENIOR HIGH SCHOOL,1.2602271540900296,47.0
1 Bristow Street,Haynes,177000,3,1,,412,150,2015.0,26200,Armadale Station,2400,"08-2013",6112,-32.15937438,115.9880817,DALE CHRISTIAN SCHOOL,1.0032399435564363,
1 Brittain Avenue,Madeley,580000,4,2,2.0,541,188,2004.0,16000,Greenwood Station,3900,"07-2017",6065,-31.81185,115.8241,KINGSWAY CHRISTIAN COLLEGE,1.257943569133381,50.0
1 Brix Street,Wembley Downs,1310000,4,2,2.0,544,246,2010.0,8700,Glendalough Station,4400,"07-2019",6019,-31.91782603,115.7766387,HALE SCHOOL,0.9108820775888916,6.0
1 Brixton Road,Bentley,470000,3,2,2.0,295,110,1950.0,8000,Welshpool Station,1300,"02-2018",6102,-32.00510024,115.9157517,CANNING COLLEGE,1.8221119153340877,
1 Bruning Road,Manning,717000,3,2,2.0,578,176,1995.0,6400,Canning Bridge Station,1400,"02-2018",6152,-32.00891,115.87138,COMO SECONDARY COLLEGE,0.5838539860074374,87.0
1 Buckie Court,Warwick,650000,4,2,1.0,715,170,,13900,Warwick Station,627,"08-2014",6024,-31.83908,115.79647,GREENWOOD COLLEGE,1.500365837809437,86.0
1 Bull Place,Queens Park,387000,4,1,4.0,380,114,1998.0,9500,Queens Park Station,594,"09-2018",6107,-32.00205721,115.941062,ST NORBERT COLLEGE,0.2653986305726844,42.0
1 Bynder Lane,Medina,330000,3,2,2.0,233,111,2014.0,31900,Kwinana Station,3300,"07-2015",6167,-32.23409592,115.8058854,GILMORE COLLEGE,0.9586860908608232,138.0
1 Cabarita Road,Kalamunda,605000,2,1,,2578,180,1977.0,18200,Madding,9200,"08-2020",6076,-31.98705,116.04769,ST BRIGID'S COLLEGE,1.1428021247311355,99.0
1 Cadiz Way,Bullsbrook,380000,3,2,2.0,350,156,2016.0,35200,Midland Station,24600,"06-2016",6084,-31.65843642,116.0411802,HOLY CROSS COLLEGE,14.257082473865491,98.0
1 Caladenia Way,Koongamia,85000,2,1,2.0,828,117,1965.0,17800,Midland Station,4300,"10-1998",6056,-31.90963,116.04061,SWAN VIEW SENIOR HIGH SCHOOL,2.488743831488223,
1 Cam Court,Merriwa,345000,3,2,2.0,603,128,1992.0,34500,Butler Station,3800,"06-2017",6030,-31.66719,115.71465,ALKIMOS BAPTIST COLLEGE,0.8727779765182248,
1 Camden Boulevard,Aubin Grove,528000,4,2,2.0,619,180,2008.0,24100,Cockburn Central Station,4900,"03-2018",6164,-32.16854691,115.86785,ATWELL COLLEGE,2.757298788389314,129.0
1 Cameron Street,Karrinyup,1350000,4,1,5.0,802,266,2012.0,12000,Warwick Station,3500,"03-2018",6018,-31.87098262,115.7759589,ST MARY'S ANGLICAN GIRLS' SCHOOL,1.1339156167704767,7.0
1 Camira Place,Gooseberry Hill,735000,4,2,2.0,1940,223,1982.0,18700,Midland Station,8500,"07-2015",6076,-31.95124,116.05696,KALAMUNDA SENIOR HIGH SCHOOL,2.9641504305521567,107.0
1 Camrose Lane,Darch,442500,4,2,2.0,529,176,2005.0,15400,Greenwood Station,6400,"11-2019",6065,-31.81372,115.85078,ASHDALE SECONDARY COLLEGE,0.9080791199887812,75.0
1 Canarias Way,Hillarys,1015000,3,2,2.0,500,312,2003.0,18600,Greenwood Station,3900,"08-2018",6025,-31.81745,115.74223,SACRED HEART COLLEGE,1.1773460302620864,19.0
1 Cannon Court,Alexander Heights,530000,3,2,4.0,771,200,1985.0,13500,Warwick Station,7500,"05-2016",6064,-31.83138,115.87381,MERCY COLLEGE,2.340057578272209,46.0
1 Canny Road,St James,515000,3,1,2.0,688,90,1958.0,6800,Welshpool Station,1700,"06-2019",6102,-31.99883,115.90544,CANNING COLLEGE,1.4162531479760074,
1 Carnegie Road,Bassendean,1100000,4,2,4.0,1012,251,2005.0,10500,Success Hill Station,843,"11-2018",6054,-31.90763,115.9573,CYRIL JACKSON SENIOR CAMPUS,1.5188824776156191,
1 Carroll Street,Ardross,1265000,4,3,2.0,590,261,2005.0,8500,Canning Bridge Station,3000,"02-2018",6153,-32.02499618,115.8306028,APPLECROSS SENIOR HIGH SCHOOL,0.645276942986222,34.0
1 Cartland Court,Bedfordale,750000,4,3,2.0,4225,236,2003.0,28600,Armadale Station,4100,"08-2019",6112,-32.14722691,116.0560529,SOUTHERN HILLS CHRISTIAN COLLEGE,3.89817720262778,
1 Caterpillar Road,Success,472500,4,2,4.0,446,147,2008.0,22700,Cockburn Central Station,3600,"07-2018",6164,-32.15555254,115.8466171,ATWELL COLLEGE,2.094911833401787,129.0
1 Caxton Lane,Ballajura,392500,4,2,,532,185,,12300,Bayswater Station,7800,"01-2019",6066,-31.84873764,115.9045034,BALLAJURA COMMUNITY COLLEGE,1.136160904867254,133.0
1 Centaur Circle,Woodbridge,900000,4,2,2.0,454,263,,14700,Midland Station,343,"12-2008",6056,-31.8934,115.998,YOUTH FUTURES COMMUNITY SCHOOL,0.8310189988790908,
1 Cessford Close,Leda,380000,5,2,2.0,642,153,1994.0,35000,Wellard Station,1200,"04-2015",6170,-32.26303,115.80407,PETER CARNLEY ANGLICAN COMMUNITY SCHOOL,1.2145051752706348,
1 Challenger Avenue,Manning,590000,3,2,2.0,449,179,2001.0,6800,Canning Bridge Station,1600,"04-2019",6152,-32.01232,115.87353,COMO SECONDARY COLLEGE,0.9884782102504912,87.0
1 Chamberlain Circle,Bateman,835000,4,2,2.0,727,179,1985.0,11300,Bull Creek Station,785,"11-2018",6150,-32.05318,115.85013,CORPUS CHRISTI COLLEGE,0.8025022598534814,28.0
1 Charleston Road,Eglinton,495000,4,2,2.0,432,155,2015.0,43700,Butler Station,5400,"02-2016",6034,-31.59475775,115.6689691,YANCHEP SECONDARY COLLEGE,5.284579807507599,
1 Chauvel Court,Kiara,390000,4,2,3.0,543,111,1994.0,11000,Bassendean Station,2100,"06-2012",6054,-31.88496,115.94411,KIARA COLLEGE,1.192517672021573,
1 Chester Court,Orelia,280000,3,1,2.0,806,119,1970.0,31900,Kwinana Station,1500,"03-2017",6167,-32.23786,115.82736,GILMORE COLLEGE,1.1822571093570655,138.0
1 Chiddington Street,Beckenham,355000,3,1,2.0,953,140,1974.0,13300,Kenwick Station,852,"02-2017",6107,-32.02907099,115.9661741,COMMUNICARE ACADEMY,0.944525280478782,
1 Chipala Court,Edgewater,465000,4,2,4.0,697,160,1987.0,20800,Edgewater Station,1200,"01-2016",6027,-31.77422523,115.7911066,MATER DEI COLLEGE,1.7420523808690005,104.0
1 Citrus Loop,South Lake,372000,3,2,2.0,402,135,,17200,Cockburn Central Station,3500,"01-2020",6164,-32.10493,115.83043,LAKELAND SENIOR HIGH SCHOOL,1.5292995824649906,
1 Claret Ash Court,Helena Valley,685000,4,2,2.0,1012,180,1994.0,16600,Midland Station,3600,"04-2015",6056,-31.91358,116.02843,YOUTH FUTURES COMMUNITY SCHOOL,3.135863661389195,
1 Clarke Street,East Cannington,360000,3,2,2.0,218,130,2006.0,10900,Canning,442,"03-2016",6107,-32.01255367,115.9493774,SEVENOAKS SENIOR COLLEGE,0.6670685196759771,114.0
1 Clearwater Way,Singleton,320000,4,2,2.0,550,185,2006.0,54600,Mandurah Station,10300,"06-2020",6175,-32.43563932,115.7585468,COMET BAY COLLEGE,2.2454085252134144,35.0
1 Clifford Loop,Darch,492000,3,2,2.0,289,122,2008.0,15100,Greenwood Station,6100,"04-2016",6065,-31.81702,115.84811,ASHDALE SECONDARY COLLEGE,0.866779697791059,75.0
1 Cliverton Court,Marmion,974000,5,2,2.0,766,290,1990.0,15200,Warwick Station,3600,"02-2013",6020,-31.84584,115.75809,CARINE SENIOR HIGH SCHOOL,1.857116986460901,47.0
1 Clovertree Street,Maddington,435000,4,2,5.0,1062,177,1988.0,17800,Gosnells Station,2000,"09-2017",6109,-32.0541,116.0043,LUMEN CHRISTI COLLEGE,1.6458743464550831,122.0
1 Cobea Court,Mount Claremont,900000,3,2,2.0,367,160,1995.0,6900,Loch Street Station,640,"06-2017",6010,-31.9669,115.78778,JOHN XXIII COLLEGE,0.8258967333064485,8.0
1 Cockman Road,Greenwood,405000,3,1,3.0,698,110,1975.0,13900,Warwick Station,2100,"08-2018",6024,-31.8335,115.81362,WARWICK SENIOR HIGH SCHOOL,0.6005024273524234,
1 Cohen Place,Beechboro,290000,3,1,1.0,782,111,1978.0,12400,Success Hill Station,2800,"12-2018",6063,-31.87535346,115.9536986,KIARA COLLEGE,1.7721533441463786,
1 Collier Street,Wembley,1160000,2,2,1.0,635,201,1950.0,4600,Glendalough Station,1800,"12-2019",6014,-31.92994,115.81815,BOLD PARK COMMUNITY SCHOOL,0.8283557812219488,
1 Colmworth Way,Butler,415000,3,2,2.0,555,159,2004.0,36700,Butler Station,1700,"11-2019",6036,-31.64758777,115.710316,BUTLER COLLEGE,0.4784643150888098,39.0
1 Colonial Mews,Edgewater,525000,4,2,1.0,758,125,1984.0,22100,Edgewater Station,670,"10-2017",6027,-31.76607,115.77891,MATER DEI COLLEGE,0.2751352156882065,104.0
1 Conical Way,Harrisdale,629000,4,2,3.0,578,229,2012.0,19500,Cockburn Central Station,6800,"09-2017",6112,-32.11590661,115.9300609,CAREY BAPTIST COLLEGE,0.7050115331321091,62.0
1 Convallis Vista,The Vines,600000,4,2,2.0,510,217,2007.0,25200,Midland Station,14300,"11-2020",6069,-31.76277307,116.0041591,HOLY CROSS COLLEGE,3.089274715629556,98.0
1 Corbin Gate,Madeley,427000,3,2,2.0,618,134,2005.0,16300,Greenwood Station,4200,"03-2020",6065,-31.808107,115.82654,KINGSWAY CHRISTIAN COLLEGE,1.0966909467611414,50.0
1 Coronado Ridge,Iluka,1015000,5,3,2.0,911,309,1995.0,26100,Joondalup Station,3200,"02-2017",6028,-31.74341,115.73399,PRENDIVILLE CATHOLIC COLLEGE,1.364734634329765,60.0
1 Corvette Close,Waikiki,445000,4,2,2.0,747,210,1991.0,42500,Warnbro Station,1900,"11-2019",6169,-32.32226,115.748,SOUTH COAST BAPTIST COLLEGE,1.1778358413079064,
1 Craigie Place,Mundaring,610000,4,2,3.0,1869,167,1985.0,29100,Midland Station,15300,"12-2018",6073,-31.90413,116.16174,MUNDARING CHRISTIAN COLLEGE,1.8512313396055864,
1 Crest Grove,Ballajura,465000,4,2,2.0,803,173,1988.0,13300,Maylands Station,10300,"08-2019",6066,-31.83561,115.88917,BALLAJURA COMMUNITY COLLEGE,1.093248837960484,133.0
1 Creswick Cross,Kiara,454000,4,2,2.0,545,160,1993.0,10800,Bassendean Station,2600,"09-2009",6054,-31.88155,115.93723,KIARA COLLEGE,0.4985020167053297,
1 Criollo Place,Stratton,380000,3,2,1.0,514,131,2000.0,20200,Midland Station,5200,"10-2014",6056,-31.8666182,116.0474837,SWAN VIEW SENIOR HIGH SCHOOL,2.3394162247710946,
1 Crivelli Parkway,Ashby,382000,4,2,2.0,401,186,2005.0,25100,Joondalup Station,3400,"06-2020",6065,-31.73266376,115.8005439,WANNEROO SECONDARY COLLEGE,3.1255687265192087,131.0
1 Crowley Vista,Salter Point,1150000,4,2,2.0,527,209,2001.0,7400,Canning Bridge Station,1100,"01-2014",6152,-32.01888,115.86017,AQUINAS COLLEGE,0.8250744707544544,23.0
1 Curruthers Road,Mount Pleasant,2200000,2,1,2.0,1100,497,1958.0,9300,Bull Creek Station,1200,"12-2018",6153,-32.035946,115.853523,AQUINAS COLLEGE,1.335488696225683,23.0
1 Cypress Mews,Warnbro,375000,4,2,4.0,580,140,2006.0,42900,Warnbro Station,1100,"09-2018",6169,-32.3275827,115.7565963,SOUTH COAST BAPTIST COLLEGE,1.3622448756117536,
1 Dagostino Road,Byford,495000,4,2,2.0,694,246,2010.0,32600,Armadale Station,7900,"11-2020",6122,-32.22239608,115.9921401,BYFORD SECONDARY COLLEGE,0.9236522735311185,116.0
1 Dalkey Way,Darch,445000,3,2,2.0,327,171,2008.0,15900,Greenwood Station,5800,"09-2016",6065,-31.81004895,115.84418,ASHDALE SECONDARY COLLEGE,0.3082940723333923,75.0
1 Danzil Street,Willagee,515000,4,2,1.0,450,150,2002.0,12600,Fremantle Station,5000,"07-2019",6156,-32.05243282,115.7976803,MELVILLE SENIOR HIGH SCHOOL,1.0008772383254252,61.0
1 Datchet Turn,Bertram,270000,3,2,2.0,271,109,2011.0,32000,Kwinana Station,447,"08-2020",6167,-32.23789039,115.8423672,THE KING'S COLLEGE,1.862233999784348,
1 David Street,Mullaloo,780000,5,2,2.0,810,180,1977.0,22100,Edgewater Station,4000,"04-2018",6027,-31.7818,115.73812,ST MARK'S ANGLICAN COMMUNITY SCHOOL,1.909756021244471,58.0
1 Davis Court,Woodlands,1280000,4,3,4.0,701,264,1980.0,7800,Stirling Station,1500,"08-2017",6018,-31.90617,115.79711,CHURCHLANDS SENIOR HIGH SCHOOL,1.407735110761504,22.0
1 Daybreak Loop,Wellard,410000,4,2,2.0,465,206,2015.0,34600,Wellard Station,3600,"03-2018",6170,-32.26332378,115.8554732,THE KING'S COLLEGE,1.8344178642145368,
1 Dean Place,Lockridge,425000,4,2,1.0,666,143,1983.0,11600,Bassendean Station,2900,"01-2014",6054,-31.87775,115.94532,KIARA COLLEGE,0.9659138534719108,
1 Dean Road,Bateman,599900,3,1,,807,126,1968.0,10600,Bull Creek Station,888,"11-2017",6150,-32.0464,115.84477,CORPUS CHRISTI COLLEGE,1.1916408863162802,28.0
1 Delphi Court,Rossmoyne,1330000,3,2,2.0,1133,135,1974.0,9300,Bull Creek Station,2000,"02-2014",6148,-32.03477,115.87024,AQUINAS COLLEGE,1.246711777080163,23.0
1 Denton Street,Wembley,732000,3,1,2.0,328,145,1990.0,4200,Subiaco Station,786,"03-2019",6014,-31.94173236,115.8166999,PERTH MODERN SCHOOL,1.895645261391815,1.0
1 Dermer Road,Beaconsfield,530000,3,2,2.0,1319,133,,15800,Fremantle Station,3100,"12-2017",6162,-32.07189,115.7687,FREMANTLE COLLEGE,0.4478662989059305,128.0
1 Deverell Way,Bentley,465000,3,2,3.0,327,136,2012.0,8100,Welshpool Station,2400,"01-2019",6102,-32.01167461,115.9076728,CANNING COLLEGE,1.0261506367266038,
1 Dilkera Place,Quinns Rocks,380000,3,2,2.0,646,168,1995.0,35100,Butler Station,3400,"01-2020",6030,-31.66609,115.70398,ALKIMOS BAPTIST COLLEGE,0.8689656216467839,
1 Dirk Hartog Road,Bull Creek,572000,3,1,2.0,483,115,,12000,Murdoch Station,971,"08-2017",6149,-32.05966708,115.8569943,CORPUS CHRISTI COLLEGE,1.3609387232194925,28.0
1 Discovery Circuit,Iluka,1300000,5,3,4.0,770,350,2002.0,26600,Currambine Station,3000,"03-2018",6028,-31.74151,115.72522,PRENDIVILLE CATHOLIC COLLEGE,2.004713284863781,60.0
1 Disney Street,Brentwood,710250,4,2,2.0,434,139,1990.0,10100,Bull Creek Station,956,"05-2016",6153,-32.0424445,115.8455803,CORPUS CHRISTI COLLEGE,1.6381013286764965,28.0
1 Dolomite Road,Carine,835000,5,2,2.0,755,197,1986.0,13900,Warwick Station,2600,"02-2018",6020,-31.85258,115.77079,CARINE SENIOR HIGH SCHOOL,0.4801233338355535,47.0
1 Dolphin Way,Beldon,400000,3,1,,683,86,1978.0,22300,Edgewater Station,2100,"12-2016",6027,-31.77175,115.7563,BELRIDGE SECONDARY COLLEGE,0.6677235223517203,102.0
1 Doradeen Close,Hillman,275000,3,1,1.0,761,94,1988.0,38300,Rockingham Station,504,"07-2015",6168,-32.28643,115.76432,KOLBE CATHOLIC COLLEGE,1.209319367189724,97.0
1 Doram Court,Swan View,335000,3,1,,686,133,1985.0,19700,Midland Station,4700,"02-2017",6056,-31.87503,116.04677,SWAN VIEW SENIOR HIGH SCHOOL,1.4037634181891845,
1 Driftwood Way,Bennett Springs,400000,4,2,2.0,582,153,2001.0,13600,Bassendean Station,5200,"01-2017",6063,-31.85716057,115.9486519,KIARA COLLEGE,2.59456066883142,
1 Driver Road,Darch,532000,4,2,2.0,653,191,2004.0,15500,Greenwood Station,6200,"08-2016",6065,-31.81305,115.84892,ASHDALE SECONDARY COLLEGE,0.7195305813430949,75.0
1 Dunbar Road,Claremont,1700000,3,2,4.0,613,125,,7600,Claremont Station,663,"12-2020",6010,-31.98391,115.78789,CHRIST CHURCH GRAMMAR SCHOOL,1.0430209501072545,3.0
1 Durant Way,Brentwood,820000,3,2,2.0,419,162,2006.0,10400,Bull Creek Station,329,"09-2015",6153,-32.04516488,115.8514316,CORPUS CHRISTI COLLEGE,1.5420481546059277,28.0
1 Dutton Way,Singleton,385000,3,1,,913,112,1983.0,56400,Mandurah Station,8500,"01-2016",6175,-32.45159,115.75533,MANDURAH BAPTIST COLLEGE,3.0055114968358936,109.0
1 Duxford Street,Butler,427000,4,2,4.0,673,153,2002.0,36900,Butler Station,1600,"11-2018",6036,-31.64941,115.69968,BUTLER COLLEGE,0.8901644386596161,39.0
1 East Street,Mount Hawthorn,660000,2,2,2.0,376,100,1962.0,4100,Glendalough Station,1300,"07-2019",6016,-31.92477,115.83006,BOLD PARK COMMUNITY SCHOOL,0.6572481039968868,
1 Eastfield Court,Ferndale,250000,3,1,1.0,955,396,2017.0,11400,Queens Park Station,2700,"07-2016",6148,-32.03099,115.9353606,FOUNTAIN COLLEGE,1.5711536476349452,
1 Easton Court,Boya,508000,4,2,2.0,1010,157,1993.0,18600,Midland Station,5700,"05-2015",6056,-31.91901559,116.0521097,TREETOPS MONTESSORI SCHOOL,2.0913038430418958,
1 Edelweiss Way,Beckenham,415000,4,2,2.0,538,115,1994.0,12300,Beckenham Station,721,"09-2018",6107,-32.02013901,115.9617687,REHOBOTH CHRISTIAN COLLEGE,1.98784123172784,
1 Edgecombe Pass,Aveley,550000,4,3,3.0,741,254,2008.0,21500,Woodbridge Station,11200,"05-2019",6069,-31.79128655,115.9853567,SWAN VALLEY ANGLICAN COMMUNITY SCHOOL,0.340289157535614,53.0
1 El Porto Way,Iluka,935000,4,2,2.0,623,280,2007.0,27500,Currambine Station,2000,"02-2020",6028,-31.73064,115.7305,PRENDIVILLE CATHOLIC COLLEGE,2.811932288355208,60.0
1 Elfin Grove,Warnbro,380000,3,2,3.0,759,179,1994.0,44000,Warnbro Station,1500,"03-2018",6169,-32.33945,115.76287,WARNBRO COMMUNITY HIGH SCHOOL,0.7674817174207745,
1 Elvire Street,Midland,349000,2,1,,927,106,1930.0,15300,Midland Station,633,"01-2018",6056,-31.88588,116.00078,LA SALLE COLLEGE,0.8824765111293752,53.0
1 Empress Crescent,Atwell,470000,4,2,2.0,701,168,1998.0,19700,Cockburn Central Station,687,"03-2019",6164,-32.12896,115.8641,ATWELL COLLEGE,1.668099473116731,129.0
1 Epping Court,High Wycombe,475000,4,2,2.0,500,197,2007.0,14500,Midland Station,4700,"09-2020",6057,-31.933213,116.010305,YOUTH FUTURES COMMUNITY SCHOOL,4.567599087956438,
1 Ericht Pass,Kinross,577500,4,2,2.0,674,161,,28800,Currambine Station,1500,"04-2019",6028,-31.71267,115.74442,LAKE JOONDALUP BAPTIST COLLEGE,3.1936569444535032,80.0
1 Estevan Way,Ferndale,490000,4,2,5.0,700,79,1975.0,11100,Queens Park Station,3000,"02-2018",6148,-32.03262,115.92794,FOUNTAIN COLLEGE,0.8624621848625819,
1 Ethel Street,Guildford,715000,4,2,1.0,380,160,1900.0,11700,Guildford Station,249,"02-2015",6055,-31.90087308,115.9671624,GUILDFORD GRAMMAR SCHOOL,1.585287253108679,52.0
1 Etna Place,Rossmoyne,1100000,4,3,,520,240,2009.0,9100,Bull Creek Station,2200,"09-2014",6148,-32.03299881,115.8710379,AQUINAS COLLEGE,1.1586690823274857,23.0
1 Eudora Way,North Coogee,1130000,4,2,2.0,495,241,2009.0,19200,Fremantle Station,6300,"10-2017",6163,-32.10580379,115.7663769,PORT SCHOOL,2.7724699981086705,
1 Facey Road,Gnangara,340000,4,1,,40864,180,1978.0,20400,Edgewater Station,8900,"12-1998",6077,-31.76939,115.87276,LANDSDALE CHRISTIAN SCHOOL,4.193281124963692,
1 Fairetha Court,Ascot,720000,4,3,2.0,528,189,1997.0,8700,Bassendean Station,2600,"09-2014",6104,-31.92723,115.94662,CYRIL JACKSON SENIOR CAMPUS,1.6404497031616243,
1 Fairhaven Terrace,Hillarys,1075000,4,2,,451,282,2003.0,20400,Whitfords Station,4600,"02-2019",6025,-31.8026285,115.7335301,ST MARK'S ANGLICAN COMMUNITY SCHOOL,0.9960874930925764,58.0
1 Fallow Crescent,Spearwood,475000,4,2,2.0,427,142,1994.0,19600,Cockburn Central Station,7700,"01-2019",6163,-32.11469111,115.7777208,PORT SCHOOL,3.5247258188858805,
1 Fantail Drive,Bibra Lake,545000,4,2,2.0,735,170,1984.0,17200,Cockburn Central Station,3700,"02-2017",6163,-32.10444,115.828,PERTH WALDORF SCHOOL,1.675110283069383,
1 Farrington Street,Warnbro,317500,4,2,2.0,872,153,1965.0,43800,Warnbro Station,1900,"03-2018",6169,-32.33509,115.75024,LIVING WATERS LUTHERAN COLLEGE,0.971267691050537,51.0
1 Federal Street,Osborne Park,465000,3,2,2.0,337,117,2002.0,6800,Glendalough Station,1900,"07-2020",6017,-31.89819732,115.8259776,SERVITE COLLEGE,0.8803877559786919,65.0
1 Felpham Court,Success,449000,4,2,2.0,502,185,2004.0,20600,Cockburn Central Station,1800,"08-2020",6164,-32.13581424,115.8464459,EMMANUEL CATHOLIC COLLEGE,1.0042534402617076,58.0
1 Ferguson Road,Karragullen,150000,4,2,,16392,160,1980.0,28000,Seaforth Station,8600,"06-1995",6111,-32.09728005,116.1008255,JOHN WOLLASTON ANGLICAN COMMUNITY SCHOOL,8.801104301025326,40.0
1 Ficarra Way,Sinagra,450000,4,2,2.0,588,160,,24300,Joondalup Station,3500,"05-2018",6065,-31.73905,115.80411,WANNEROO SECONDARY COLLEGE,2.339293137668597,131.0
1 First Avenue,Woodbridge,525000,3,1,2.0,607,94,1969.0,14400,Woodbridge Station,95,"11-2007",6056,-31.89071,115.99245,GOVERNOR STIRLING SENIOR HIGH SCHOOL,0.3966067018408368,130.0
1 Fischer Road,Darlington,900000,4,3,3.0,2152,260,1982.0,21500,Midland Station,7700,"08-2017",6070,-31.90745,116.08066,HELENA COLLEGE,1.01788587865268,78.0
1 Flello Rise,Bedfordale,950000,4,3,3.0,3102,287,2009.0,29700,Armadale Station,4300,"12-2014",6112,-32.15915736,116.0580013,SOUTHERN HILLS CHRISTIAN COLLEGE,2.663422392714136,
1 Flemington Way,Redcliffe,375000,3,2,,428,144,2000.0,8300,Bassendean Station,4600,"09-2020",6104,-31.94468218,115.9462251,BELMONT CITY COLLEGE,1.9329278995923345,57.0
1 Flint Close,Pearsall,522000,4,2,2.0,641,222,2002.0,19900,Edgewater Station,3600,"02-2019",6065,-31.7776903,115.815662,ALTA-1,0.8828001504020482,
1 Florey Place,Huntingdale,464000,4,1,4.0,700,182,1986.0,17900,Gosnells Station,2800,"07-2016",6110,-32.0806105,115.972457,SOUTHERN RIVER COLLEGE,0.8956053692480858,121.0
1 Floribunda Gate,Dayton,550000,4,2,2.0,414,190,,15000,East Guildford Station,4200,"01-2016",6055,-31.85877749,115.9732655,SWAN CHRISTIAN COLLEGE,3.636457594403293,93.0
1 Forrest Court,Kiara,490000,4,2,2.0,720,166,1989.0,10400,Ashfield Station,3000,"10-2008",6054,-31.88619,115.93636,KIARA COLLEGE,0.9794607508034756,
1 Fort Street,Morley,560000,2,1,,605,185,2006.0,6300,Meltham Station,1700,"05-2020",6062,-31.90743,115.89934,JOHN FORREST SECONDARY COLLEGE,0.3917012664671572,74.0
1 Fortuna View,Iluka,1160000,4,2,3.0,696,329,2010.0,26900,Currambine Station,2900,"07-2019",6028,-31.73934726,115.7245862,PRENDIVILLE CATHOLIC COLLEGE,2.2247264469982344,60.0
1 Fortune Street,Balcatta,460000,3,2,2.0,322,109,1997.0,8100,Stirling Station,2100,"07-2018",6021,-31.88513,115.82445,BALCATTA SENIOR HIGH SCHOOL,1.5724517959293425,135.0
1 Fourth Avenue,Rossmoyne,872000,4,2,2.0,1029,147,1989.0,9300,Bull Creek Station,2000,"01-2014",6148,-32.0356484,115.8700915,ROSSMOYNE SENIOR HIGH SCHOOL,1.1816277886610915,16.0
1 Fran Court,Merriwa,335000,3,2,2.0,653,168,2002.0,34000,Clarkson Station,3100,"04-2017",6030,-31.67332,115.71274,QUINNS BAPTIST COLLEGE,0.3994851302453237,118.0
1 Frederic Street,Koongamia,83000,2,1,2.0,935,100,1959.0,17600,Midland Station,4100,"06-1998",6056,-31.90971373,116.0383163,SWAN VIEW SENIOR HIGH SCHOOL,2.537533644600079,
1 Freedman Road,Menora,925000,4,2,4.0,792,237,1969.0,3900,Mount Lawley Station,2600,"01-2018",6050,-31.9174949,115.8627879,MOUNT LAWLEY SENIOR HIGH SCHOOL,0.7770936549534767,20.0
1 Gaffin Way,Kwinana Town Centre,330000,3,2,2.0,203,108,2015.0,32500,Wellard Station,2400,"11-2015",6167,-32.24220021,115.8152219,GILMORE COLLEGE,0.4393725735915627,138.0
1 Gali Lane,City Beach,1930000,4,3,2.0,440,307,2012.0,8800,Swanbourne Station,6000,"04-2016",6015,-31.92904792,115.770024,NEWMAN COLLEGE,1.7608619613636132,44.0
1 Galilee Way,Baldivis,547000,3,2,2.0,749,259,2009.0,43400,Warnbro Station,5000,"07-2020",6171,-32.34096334,115.8181808,BALDIVIS SECONDARY COLLEGE,1.22823888675086,134.0
1 Gamay Court,The Vines,533000,4,2,,734,243,2001.0,26100,Midland Station,15400,"09-2017",6069,-31.75328,116.00534,HOLY CROSS COLLEGE,3.7064215883191935,98.0
1 Gannett Street,Bateman,460000,2,1,1.0,807,76,1969.0,10600,Bull Creek Station,634,"07-2019",6150,-32.04687661,115.8473517,CORPUS CHRISTI COLLEGE,1.201104502750636,28.0
1 Genesta Place,Two Rocks,405000,4,2,2.0,819,139,1986.0,57200,Butler Station,19100,"01-2016",6037,-31.49278,115.58896,YANCHEP SECONDARY COLLEGE,8.416124394930307,
1 Georges Close,Kallaroo,1075000,4,2,3.0,773,330,1989.0,20600,Whitfords Station,3500,"08-2016",6025,-31.79391,115.74608,ST MARK'S ANGLICAN COMMUNITY SCHOOL,0.5925881517503163,58.0
1 Gerygone Pass,Tapping,465000,3,2,2.0,420,185,2007.0,26700,Currambine Station,3600,"08-2017",6065,-31.72047938,115.7877351,JOSEPH BANKS SECONDARY COLLEGE,2.566084751071037,92.0
1 Ghost Gum Boulevard,Banksia Grove,335000,4,2,2.0,373,116,2004.0,28800,Clarkson Station,6100,"08-2017",6031,-31.69797849,115.8022078,JOSEPH BANKS SECONDARY COLLEGE,0.5371549862250681,92.0
1 Gianatti Ramble,East Cannington,745000,4,2,2.0,462,337,2008.0,11700,Beckenham Station,1200,"08-2016",6107,-32.0131973,115.9599173,SEVENOAKS SENIOR COLLEGE,1.6630049076909694,114.0
1 Gidgee Cove,Kenwick,385000,3,2,2.0,416,141,2015.0,15100,Madding,1700,"05-2018",6107,-32.03440647,115.9855347,REHOBOTH CHRISTIAN COLLEGE,0.7817533089278483,
1 Gilchrist Avenue,Bibra Lake,480000,3,1,2.0,700,102,1980.0,15000,Murdoch Station,2300,"08-2016",6163,-32.08615,115.84273,LEEMING SENIOR HIGH SCHOOL,1.819736512298564,89.0
1 Gillespie Court,Lockridge,330000,3,1,5.0,351,100,2000.0,11100,Bassendean Station,1900,"09-2015",6054,-31.88684,115.94766,KIARA COLLEGE,1.5805977119834675,
1 Gillon Road,Noranda,520000,4,2,,752,214,1990.0,9600,Bayswater Station,4500,"11-2016",6062,-31.87758,115.90971,HAMPTON SENIOR HIGH SCHOOL,2.1968361317962275,117.0
1 Giudice Way,Yangebup,885000,4,2,2.0,641,255,2009.0,19900,Cockburn Central Station,4700,"11-2020",6164,-32.12598858,115.8084681,DIVINE MERCY COLLEGE,1.5799270500026137,
1 Glasson Way,Darch,610000,4,2,2.0,596,247,2007.0,16400,Whitfords Station,5500,"08-2016",6065,-31.80600361,115.8399203,ASHDALE SECONDARY COLLEGE,0.6424997711313413,75.0
1 Glebe Close,Mindarie,830000,4,2,2.0,726,266,2001.0,32900,Clarkson Station,2500,"01-2018",6030,-31.68433,115.71265,QUINNS BAPTIST COLLEGE,0.9351675390104184,118.0
1 Glenelg Street,Mount Hawthorn,825000,4,2,2.0,325,144,,3900,West Leederville Station,1800,"02-2018",6016,-31.92631,115.83128,BOLD PARK COMMUNITY SCHOOL,0.8120958853584155,
1 Gloucester Road,Kalamunda,485000,4,2,1.0,997,179,1970.0,19700,Madding,10300,"07-2018",6076,-31.9862,116.06309,KALAMUNDA SENIOR HIGH SCHOOL,1.1316072058559248,107.0
1 Gloucester Street,Swanbourne,980000,4,2,3.0,500,180,,8600,Swanbourne Station,915,"05-2017",6010,-31.97448929,115.7713637,SCOTCH COLLEGE,0.7589308241649902,24.0
1 Gold Lane,Iluka,769000,5,2,2.0,638,323,2005.0,27500,Currambine Station,2000,"06-2017",6028,-31.73051,115.73091,PRENDIVILLE CATHOLIC COLLEGE,2.814006509425797,60.0
1 Goldsmith Drive,Wellard,900000,4,2,5.0,2929,346,1998.0,34800,Wellard Station,1200,"12-2018",6170,-32.26368,115.82987,THE KING'S COLLEGE,1.347217423278439,
1 Gordon Place,Huntingdale,410000,3,2,1.0,675,143,1985.0,17400,Gosnells Station,2900,"05-2016",6110,-32.076494,115.9698639,SOUTHERN RIVER COLLEGE,1.3867827258095105,121.0
1 Gorman Place,Calista,475000,4,2,2.0,559,201,2006.0,33200,Wellard Station,2200,"12-2015",6167,-32.247079,115.805396,GILMORE COLLEGE,1.320656151613119,138.0
1 Graduate Place,Marangaroo,385000,4,2,1.0,613,132,1993.0,14200,Warwick Station,5200,"07-2019",6064,-31.82507,115.84667,GIRRAWHEEN SENIOR HIGH SCHOOL,1.3487736966952382,
1 Grahame Street,Mount Helena,385000,4,1,2.0,1635,134,1975.0,34800,Midland Station,20300,"05-2019",6082,-31.86844,116.21402,EASTERN HILLS SENIOR HIGH SCHOOL,0.840697792336558,105.0
1 Grancey Avenue,Mundaring,650000,2,1,,3675,231,2005.0,28800,Midland Station,14800,"02-2020",6073,-31.90044,116.15701,MUNDARING CHRISTIAN COLLEGE,2.204977612319573,
1 Grant Street,Duncraig,730000,5,2,2.0,576,183,2012.0,16000,Greenwood Station,1900,"02-2020",6023,-31.82993213,115.7682169,DUNCRAIG SENIOR HIGH SCHOOL,0.8987050124562183,32.0
1 Gray Road,Gooseberry Hill,560000,5,3,2.0,2646,270,1990.0,16700,Midland Station,8200,"05-2016",6076,-31.95903077,116.0355405,KALAMUNDA SENIOR HIGH SCHOOL,2.8620448664142564,107.0
1 Gray Road,Haynes,720000,4,2,2.0,2000,232,1993.0,24700,Armadale Station,2900,"01-2013",6112,-32.14771648,115.9833416,CECIL ANDREWS COLLEGE,1.0837834212141273,139.0
1 Green Street,Kewdale,505000,3,1,2.0,688,132,1986.0,8100,Queens Park Station,2900,"05-2017",6105,-31.98095493,115.9380797,AUSTRALIAN ISLAMIC COLLEGE - KEWDALE,0.5347278879686045,102.0
1 Greygum Rise,Kenwick,362500,5,2,1.0,515,153,1998.0,15300,Madding,1400,"07-2019",6107,-32.03717,115.98572,REHOBOTH CHRISTIAN COLLEGE,0.9599976366140784,
1 Grid Court,Beldon,487000,3,1,2.0,685,124,1983.0,22000,Edgewater Station,1600,"02-2017",6027,-31.7725,115.76202,BELRIDGE SECONDARY COLLEGE,0.2595192258331441,102.0
1 Grimsay Road,Ardross,600000,3,1,3.0,380,95,1970.0,8300,Canning Bridge Station,2500,"08-2016",6153,-32.02469,115.83702,APPLECROSS SENIOR HIGH SCHOOL,0.5520845502362297,34.0
1 Grove End Ridge,Mount Claremont,1675000,4,3,2.0,1055,299,2000.0,7400,Claremont Station,1800,"10-2017",6010,-31.96425,115.78209,JOHN XXIII COLLEGE,0.5453652631717104,8.0
1 Grove Street,Shoalwater,315000,3,1,1.0,825,109,1980.0,40200,Rockingham Station,4600,"09-2017",6169,-32.29130126,115.7122419,ROCKINGHAM SENIOR HIGH SCHOOL,2.300003885959917,
1 Guy Place,Melville,990000,3,2,3.0,873,156,,10700,Bull Creek Station,4700,"09-2019",6156,-32.03713,115.80538,MELVILLE SENIOR HIGH SCHOOL,1.0212576743540371,61.0
1 Hadlow Court,Leeming,428000,4,3,4.0,803,204,1980.0,13500,Murdoch Station,1600,"11-2018",6149,-32.07296442,115.8655018,LEEMING SENIOR HIGH SCHOOL,0.8703660068269112,89.0
1 Halleendale Road,Walliston,620000,4,2,,1386,244,1995.0,20500,Madding,9700,"10-2007",6076,-32.00122,116.06845,ST BRIGID'S COLLEGE,1.627588918896693,99.0
1 Hamlyn Glen,Kiara,405000,3,1,3.0,975,126,1993.0,10600,Ashfield Station,3400,"07-2012",6054,-31.88204218,115.9341911,KIARA COLLEGE,0.5180012679121346,
1 Hanrahan Loop,Kardinya,643000,4,2,2.0,701,188,1982.0,14000,Murdoch Station,4300,"10-2018",6163,-32.06888,115.80488,NORTH LAKE SENIOR CAMPUS,0.9809345664585672,
1 Hansen Vista,Landsdale,538000,5,2,2.0,556,212,2006.0,15600,Greenwood Station,7700,"07-2019",6065,-31.81228,115.86481,LANDSDALE CHRISTIAN SCHOOL,0.6503653819164303,
1 Hardey Road,Serpentine,375000,4,2,4.0,2000,127,1995.0,47700,Warnbro Station,20100,"09-2014",6125,-32.36876,115.97618,COURT GRAMMAR SCHOOL,11.11406715917102,
1 Harrier Way,Beldon,395000,3,1,1.0,461,130,1985.0,21300,Edgewater Station,559,"11-2017",6027,-31.77517826,115.774014,BELRIDGE SECONDARY COLLEGE,1.1553102777307784,102.0
1 Hartle Lane,Brookdale,311850,4,2,2.0,471,154,2014.0,28000,Armadale Station,1900,"10-2013",6112,-32.17006445,116.0063044,ARMADALE SENIOR HIGH SCHOOL,1.2149886200286786,
1 Hartley Street,Coolbellup,499000,4,2,2.0,613,230,1969.0,15300,Murdoch Station,5400,"03-2017",6163,-32.07800737,115.7947337,SETON CATHOLIC COLLEGE,0.6046656429050424,91.0
1 Hartwell Parade,Jandakot,620000,4,2,2.0,815,228,2002.0,17400,Cockburn Central Station,1900,"02-2019",6164,-32.10808521,115.8555693,LAKELAND SENIOR HIGH SCHOOL,0.9160905846351473,
1 Harwood Pass,Darling Downs,660000,5,3,2.0,4297,269,2004.0,30400,Armadale Station,4300,"07-2018",6122,-32.19289143,116.0120665,ARMADALE SENIOR HIGH SCHOOL,3.4953990501896666,
1 Harwood Street,Hilton,560003,3,2,2.0,537,175,1953.0,14400,Fremantle Station,4000,"08-2016",6163,-32.06521332,115.7843712,SETON CATHOLIC COLLEGE,1.1883374781016336,91.0
1 Hazlett Close,South Lake,481000,4,2,1.0,703,123,1985.0,17300,Cockburn Central Station,2900,"07-2016",6164,-32.10647,115.83728,LAKELAND SENIOR HIGH SCHOOL,0.8627698562242826,
1 Hebb Court,Parkerville,635000,3,1,6.0,20070,160,2001.0,29400,Midland Station,14800,"06-2016",6081,-31.873898,116.1557516,MUNDARING CHRISTIAN COLLEGE,3.601245645778034,
1 Henderson Road,Stoneville,430000,3,1,2.0,2190,120,,30500,Midland Station,16100,"04-2013",6081,-31.88207,116.17109,MUNDARING CHRISTIAN COLLEGE,2.0422468323502296,
1 Hennessy Drive,Ashby,430000,4,2,2.0,570,187,2005.0,25000,Joondalup Station,3200,"07-2020",6065,-31.73327888,115.797917,WANNEROO SECONDARY COLLEGE,3.1839639763138377,131.0
1 Henrietta Court,Coogee,727000,4,2,2.0,691,245,1998.0,20800,Cockburn Central Station,8100,"09-2015",6166,-32.12453,115.77293,PORT SCHOOL,4.646060583241165,
1 Henty Court,Mirrabooka,450000,4,1,1.0,723,187,1985.0,10800,Warwick Station,6200,"04-2015",6061,-31.85539218,115.8610425,JOHN SEPTIMUS ROE ANGLICAN COMMUNITY SCHOOL,0.6027313733002939,35.0
1 Herbert Road,Subiaco,910000,2,1,1.0,241,120,,4600,Daglish Station,422,"07-2018",6008,-31.95496368,115.8103043,SHENTON COLLEGE,0.866979288016515,14.0
1 Heslop Road,Lesmurdie,705000,5,2,3.0,1000,223,2000.0,19500,Madding,9400,"04-2018",6076,-31.99545,116.05911,ST BRIGID'S COLLEGE,0.6772861076458347,99.0
1 Hewlett Turn,Tapping,470000,4,2,2.0,594,250,2002.0,26700,Currambine Station,4600,"07-2018",6065,-31.71751458,115.7986454,JOSEPH BANKS SECONDARY COLLEGE,2.104618346656851,92.0
1 Hillcrest Drive,Darlington,474000,3,2,3.0,2851,240,1974.0,21800,Midland Station,8800,"01-2018",6070,-31.92197,116.08688,TREETOPS MONTESSORI SCHOOL,1.2138634487887092,
1 Hilliger Turn,Jane Brook,515000,4,2,2.0,430,168,2015.0,21300,Midland Station,6400,"02-2016",6056,-31.85965981,116.056712,SWAN VIEW SENIOR HIGH SCHOOL,3.307926501985638,
1 Hilltop Close,Mahogany Creek,272500,3,1,2.0,1799,140,1987.0,27400,Midland Station,13500,"01-2005",6072,-31.90108,116.14282,MUNDARING CHRISTIAN COLLEGE,3.546323001541575,
1 Hilltop Place,Edgewater,492500,4,2,,736,197,1987.0,21800,Edgewater Station,825,"12-2017",6027,-31.76698,115.78496,MATER DEI COLLEGE,0.8388866400672013,104.0
1 Hillwater Promenade,Bennett Springs,565000,4,2,2.0,631,209,,12600,Bassendean Station,4800,"05-2015",6063,-31.8612434,115.9386062,KIARA COLLEGE,1.8327815115591517,
1 Hitek Court,Merriwa,280000,4,2,2.0,599,105,1990.0,34000,Clarkson Station,3000,"11-2020",6030,-31.67284,115.71496,QUINNS BAPTIST COLLEGE,0.5846696918678415,118.0
1 Holmesdale Road,Woodbridge,575000,3,1,2.0,510,112,1935.0,14500,Woodbridge Station,366,"10-2016",6056,-31.89292,115.99591,GOVERNOR STIRLING SENIOR HIGH SCHOOL,0.8039341108656063,130.0
1 Holywell Street,Middle Swan,495000,4,3,2.0,500,180,2012.0,16900,Midland Station,2200,"01-2013",6056,-31.87473097,116.0125088,LA SALLE COLLEGE,0.8759900360680547,53.0
1 Honister Close,Balga,290000,4,1,2.0,714,132,1984.0,11100,Warwick Station,4200,"08-2019",6061,-31.8534138,115.8397022,BALGA SENIOR HIGH SCHOOL,0.6827401543738686,
1 Hood Street,Forrestfield,365000,3,1,2.0,700,120,1984.0,15400,Madding,6200,"09-2020",6058,-31.99944892,116.012145,HERITAGE COLLEGE PERTH,2.0446112597278505,
1 Horsemans View,Roleystone,670000,5,2,7.0,2783,284,2011.0,29800,Sherwood Station,7200,"01-2019",6111,-32.13753366,116.0867356,SOUTHERN HILLS CHRISTIAN COLLEGE,6.096922304164809,
1 Hulbert Street,South Fremantle,1200000,4,2,3.0,455,103,1965.0,16800,Fremantle Station,2700,"01-2018",6162,-32.07436,115.75525,FREMANTLE COLLEGE,1.3979942512101655,128.0
1 Huntington Road,Coogee,910000,3,3,2.0,706,280,1986.0,20000,Fremantle Station,7300,"02-2019",6166,-32.11466,115.76909,PORT SCHOOL,3.625613581433157,
1 Hydra Close,Rockingham,340000,3,1,2.0,725,105,1970.0,39700,Rockingham Station,2600,"01-2019",6168,-32.29327,115.73428,ROCKINGHAM SENIOR HIGH SCHOOL,0.93256234883412,
1 Hynes Road,Dalkeith,1800000,4,2,2.0,1072,233,1985.0,8200,Claremont Station,1900,"02-2015",6009,-31.9961478,115.7896847,METHODIST LADIES' COLLEGE,1.6772415437349486,5.0
1 INGODA LINK,Baldivis,650000,5,1,,719,278,2013.0,43800,Warnbro Station,4800,"05-2020",6171,-32.34367531,115.814739,TRANBY COLLEGE,1.405372823464404,62.0
1 Ingot Lane,Harrisdale,492000,4,2,2.0,446,197,2008.0,19300,Cockburn Central Station,6800,"09-2020",6112,-32.11452587,115.9296236,CAREY BAPTIST COLLEGE,0.6461087757883154,62.0
1 Iona Place,Cannington,543800,4,2,2.0,527,158,1996.0,9900,Queens Park Station,526,"11-2017",6107,-32.01165,115.93722,SEVENOAKS SENIOR COLLEGE,0.4884036882393895,114.0
1 Irma Way,Butler,360000,4,2,2.0,568,151,2006.0,37300,Butler Station,1000,"04-2020",6036,-31.64276,115.70605,BUTLER COLLEGE,1.021665760805465,39.0
1 Ironcap Grove,Wandi,305000,4,2,2.0,439,185,2015.0,27600,Kwinana Station,4300,"06-2015",6167,-32.20048161,115.8608325,GILMORE COLLEGE,6.035286552705849,138.0
1 Ivythorne Grove,Kiara,210000,3,1,2.0,534,125,1992.0,10500,Ashfield Station,3400,"09-2013",6054,-31.88213,115.93384,KIARA COLLEGE,0.534034734235495,
1 Jacolite Street,Darch,530000,4,2,2.0,597,211,2006.0,15700,Greenwood Station,6300,"08-2019",6065,-31.81164307,115.8494115,ASHDALE SECONDARY COLLEGE,0.7482650686773793,75.0
1 Jade Grove,Edgewater,480000,4,2,2.0,723,185,1982.0,21700,Edgewater Station,610,"02-2017",6027,-31.76818,115.78316,MATER DEI COLLEGE,0.7400292454395415,104.0
1 Jaffa Close,Seville Grove,375000,3,2,2.0,647,129,1994.0,24600,Sherwood Station,2500,"10-2016",6112,-32.145346,115.9854452,CECIL ANDREWS COLLEGE,0.7626531679499792,139.0
1 Jamaican Road,Safety Bay,372500,3,2,1.0,688,160,1980.0,41000,Rockingham Station,2500,"09-2017",6169,-32.30719,115.74437,SAFETY BAY SENIOR HIGH SCHOOL,0.5395219042147812,136.0
1 Jameson Street,Mosman Park,980000,3,2,2.0,1140,135,1989.0,11300,Vic,1200,"09-2017",6012,-32.01677624,115.7666944,IONA PRESENTATION COLLEGE,0.9228652151245808,17.0
1 Jaraba Avenue,Gooseberry Hill,1400000,3,2,1.0,2819,189,1920.0,17800,Midland Station,9200,"12-2015",6076,-31.96416265,116.0464413,KALAMUNDA SENIOR HIGH SCHOOL,1.7815009599188047,107.0
1 Jarrah Lane,Mount Claremont,1210000,3,2,2.0,309,220,2002.0,6600,Loch Street Station,379,"12-2020",6010,-31.96853,115.79211,JOHN XXIII COLLEGE,1.180421191193814,8.0
1 Jaywick Close,Safety Bay,435000,4,2,,565,214,1997.0,40800,Rockingham Station,3500,"07-2017",6169,-32.30164,115.72676,SAFETY BAY SENIOR HIGH SCHOOL,1.3479028438748668,136.0
1 Jecks Street,Maida Vale,508000,4,2,2.0,561,199,2003.0,15100,Midland Station,7500,"09-2020",6057,-31.95706,116.01909,DARLING RANGE SPORTS COLLEGE,2.209908563143077,137.0
1 Jeffrey Loop,Brookdale,315000,4,2,2.0,330,123,2014.0,28000,Armadale Station,1800,"03-2017",6112,-32.16939481,116.0083618,ARMADALE SENIOR HIGH SCHOOL,1.0412523665189413,
1 Jib Court,Ocean Reef,740000,3,2,,848,215,1989.0,23200,Edgewater Station,3500,"07-2020",6027,-31.76898,115.7423,OCEAN REEF SENIOR HIGH SCHOOL,1.1753519817512743,83.0
1 Jindabyne Street,Hilbert,493000,4,2,2.0,475,185,,26700,Armadale Station,2300,"07-2014",6112,-32.163197,115.9916304,DALE CHRISTIAN SCHOOL,0.7956199189870173,
1 Johnson Avenue,Guildford,561000,2,1,2.0,357,151,1900.0,11900,Guildford Station,428,"10-2019",6055,-31.90124079,115.9694943,GUILDFORD GRAMMAR SCHOOL,1.4187649505593358,52.0
1 Jolimont Terrace,Jolimont,1100000,3,1,1.0,466,172,1920.0,4600,Daglish Station,863,"06-2014",6014,-31.94424,115.81145,SHENTON COLLEGE,1.8952071671225688,14.0
1 Josbury Corner,Carramar,605000,4,2,2.0,702,238,,27900,Currambine Station,4600,"02-2017",6031,-31.70727,115.79412,JOSEPH BANKS SECONDARY COLLEGE,0.9842990444740486,92.0
1 Jura Court,Duncraig,575000,3,1,1.0,739,129,1980.0,15300,Greenwood Station,1700,"07-2018",6023,-31.83222514,115.7803186,GREENWOOD COLLEGE,1.241765865768387,86.0
1 Jurien Close,Warnbro,301000,4,2,1.0,714,104,1993.0,43500,Warnbro Station,965,"09-2018",6169,-32.33479,115.76476,WARNBRO COMMUNITY HIGH SCHOOL,1.311800134024312,
1 Kadi Court,Marangaroo,380000,3,1,2.0,486,116,1990.0,13200,Warwick Station,4800,"07-2017",6064,-31.83453,115.84549,GIRRAWHEEN SENIOR HIGH SCHOOL,0.4056045562787146,
1 Kalara Road,Koongamia,350000,3,1,1.0,692,96,1955.0,17800,Midland Station,4000,"12-2014",6056,-31.9068,116.03943,SWAN VIEW SENIOR HIGH SCHOOL,2.1983244996062186,
1 Kalara Way,Koongamia,172000,3,2,1.0,729,135,2003.0,17700,Midland Station,3900,"09-2005",6056,-31.90621,116.03842,SWAN VIEW SENIOR HIGH SCHOOL,2.156922947251778,
1 Kalbarri Pass,Jane Brook,725000,4,2,2.0,641,239,2015.0,21300,Midland Station,6300,"09-2016",6056,-31.86176396,116.0570848,SWAN VIEW SENIOR HIGH SCHOOL,3.103587061181075,
1 Kangaroo Entrance,Stratton,255000,3,1,2.0,539,90,1994.0,19800,Midland Station,4900,"10-2019",6056,-31.86161,116.03936,SWAN CHRISTIAN COLLEGE,2.63381347538576,93.0
1 Kartner Road,Tapping,500000,4,2,2.0,652,191,2006.0,25800,Currambine Station,4600,"01-2019",6065,-31.72592,115.79928,JOSEPH BANKS SECONDARY COLLEGE,3.041216733444813,92.0
1 Kennack Vista,Atwell,617500,4,2,2.0,723,226,,21100,Cockburn Central Station,2100,"04-2018",6164,-32.1418,115.86899,ATWELL COLLEGE,0.5154247249355478,129.0
1 Kensington Street,Bellevue,520000,3,2,4.0,837,167,1999.0,17600,Midland Station,3200,"03-2014",6056,-31.89893997,116.0338253,SWAN VIEW SENIOR HIGH SCHOOL,1.6154874901931828,
1 Kent Street,Viveash,300000,3,1,2.0,850,104,1969.0,15800,Midland Station,1600,"03-2010",6056,-31.87724,116.00034,LA SALLE COLLEGE,0.4119881945200156,53.0
1 Kevin Street,Stoneville,533000,3,1,4.0,2024,167,1980.0,31600,Midland Station,17100,"07-2014",6081,-31.8751,116.18084,MUNDARING CHRISTIAN COLLEGE,2.6249467640453554,
1 Kilmurray Elbow,Huntingdale,415000,4,2,2.0,600,137,2002.0,17800,Thornlie Station,4600,"04-2020",6110,-32.08833,115.95745,SOUTHERN RIVER COLLEGE,2.139057384391913,121.0
1 Kinkuna Way,City Beach,1645000,5,4,2.0,778,333,1974.0,10000,Glendalough Station,5600,"09-2016",6015,-31.91382,115.76336,HALE SCHOOL,1.935451944817012,6.0
1 Kirkcolm Way,Warwick,655000,4,2,2.0,702,173,1982.0,13500,Warwick Station,371,"02-2018",6024,-31.84202,115.79866,WARWICK SENIOR HIGH SCHOOL,1.6276382966090317,
1 Kirke Cove,Merriwa,307000,4,2,2.0,462,149,2002.0,35200,Butler Station,3200,"03-2018",6030,-31.663017,115.707587,ALKIMOS BAPTIST COLLEGE,0.386834984769939,
1 Kirkstall Way,Sawyers Valley,405000,2,1,2.0,1833,109,1981.0,32600,Midland Station,18700,"01-2008",6074,-31.90062,116.19866,MUNDARING CHRISTIAN COLLEGE,1.7498143670404982,
1 Knaphill Heights,Mirrabooka,458000,6,2,1.0,626,136,1989.0,10800,Warwick Station,7300,"08-2016",6061,-31.85597209,115.8720644,JOHN SEPTIMUS ROE ANGLICAN COMMUNITY SCHOOL,1.4993337726338722,35.0
1 Kookaburra Terrace,Ballajura,335000,4,1,4.0,704,101,1990.0,13400,Maylands Station,10300,"06-2018",6066,-31.83531353,115.8907374,BALLAJURA COMMUNITY COLLEGE,1.0797588200776862,133.0
1 Kooralbyn Way,Connolly,745000,4,2,2.0,827,209,,25300,Joondalup Station,1300,"09-2014",6027,-31.74313,115.75396,LAKE JOONDALUP BAPTIST COLLEGE,0.9453545921308524,80.0
1 Kutcharo Crescent,Joondalup,451000,3,1,1.0,729,114,1989.0,27200,Currambine Station,714,"03-2019",6027,-31.72359,115.75795,LAKE JOONDALUP BAPTIST COLLEGE,1.578945271054862,80.0
1 Kyby Place,Carramar,719000,4,2,2.0,611,268,2006.0,28000,Currambine Station,4600,"07-2020",6031,-31.70664144,115.7936456,JOSEPH BANKS SECONDARY COLLEGE,0.9290056233854244,92.0
1 Kyle Place,Swan View,726000,4,3,2.0,2002,470,1979.0,20600,Midland Station,6100,"12-2016",6056,-31.89313,116.06577,SWAN VIEW SENIOR HIGH SCHOOL,2.119756454318232,
1 Lambeth Mews,Mount Claremont,2150000,5,3,2.0,1047,375,2000.0,7700,Claremont Station,2100,"09-2016",6010,-31.96237,115.77813,JOHN XXIII COLLEGE,0.6858404175532274,8.0
1 Lanark Street,Menora,875000,2,1,2.0,660,421,1930.0,3600,Leederville Station,2600,"01-2007",6050,-31.91975,115.85612,MOUNT LAWLEY SENIOR HIGH SCHOOL,1.2971257393450282,20.0
1 Langham Street,Nedlands,1200000,4,2,4.0,540,213,2012.0,5400,Shen,1500,"04-2019",6009,-31.9730632,115.8067066,SHENTON COLLEGE,1.5268274216546056,14.0
1 Lark Court,Yangebup,325000,3,1,1.0,350,137,,19200,Cockburn Central Station,3700,"07-2019",6164,-32.1212,115.81912,DIVINE MERCY COLLEGE,0.6893138411265392,
1 Lark Mews,Ballajura,550000,3,1,2.0,812,230,1989.0,13500,Maylands Station,10500,"03-2020",6066,-31.83355,115.88702,BALLAJURA COMMUNITY COLLEGE,1.3850748073234995,133.0
1 Lauder Place,Kinross,525000,4,2,2.0,628,192,1994.0,28600,Currambine Station,1600,"08-2017",6028,-31.71787,115.7355,LAKE JOONDALUP BAPTIST COLLEGE,3.281609960252902,80.0
1 Laughton Way,Leeming,577000,3,2,2.0,329,138,2010.0,12800,Murdoch Station,1600,"12-2019",6149,-32.06656535,115.867969,WILLETTON SENIOR HIGH SCHOOL,1.2111842011618086,18.0
1 Lee Street,Forrestfield,305000,3,1,1.0,363,109,1981.0,15300,Madding,6600,"01-2020",6058,-31.9957545,116.0121594,HERITAGE COLLEGE PERTH,1.664580731647829,
1 Leigh Court,Marangaroo,410000,3,1,1.0,474,120,,13900,Warwick Station,3500,"12-2016",6064,-31.83019,115.82905,GIRRAWHEEN SENIOR HIGH SCHOOL,1.3995611375280053,
1 Lena Street,Beckenham,385000,4,1,1.0,771,121,1984.0,11700,Beckenham Station,534,"01-2017",6107,-32.01824223,115.9549288,SEVENOAKS SENIOR COLLEGE,1.3521611600884222,114.0
1 Lennoxtown Road,Duncraig,650000,5,2,1.0,701,179,1977.0,15200,Greenwood Station,1700,"08-2020",6023,-31.83236,115.78233,GREENWOOD COLLEGE,1.0947411762062786,86.0
1 Letchworth Centre Avenue,Salter Point,1000000,4,1,,1012,255,2003.0,7900,Canning Bridge Station,1800,"06-2020",6152,-32.02242817,115.8685716,AQUINAS COLLEGE,0.7662105186138404,23.0
1 Librizzi Parade,Sinagra,530000,4,2,2.0,654,239,2008.0,24300,Joondalup Station,3500,"11-2016",6065,-31.73905101,115.8032831,WANNEROO SECONDARY COLLEGE,2.375086858481592,131.0
1 Lilypond Court,Ascot,555000,5,1,2.0,279,172,1995.0,8800,Bassendean Station,2500,"06-2014",6104,-31.92644,115.94743,CYRIL JACKSON SENIOR CAMPUS,1.576298216948368,
1 Lindeman Heights,Ridgewood,430000,4,2,2.0,715,190,,33900,Clarkson Station,2600,"09-2018",6030,-31.66911,115.72681,CLARKSON COMMUNITY HIGH SCHOOL,0.9272027525592176,
1 Linnett Brace,Darch,550000,4,2,2.0,545,208,2009.0,15200,Greenwood Station,5300,"12-2019",6065,-31.81636,115.83881,KINGSWAY CHRISTIAN COLLEGE,0.5494111949901546,50.0
1 Lintonmarc Drive,Redcliffe,555000,4,2,2.0,496,169,2000.0,8200,Ashfield Station,3600,"01-2017",6104,-31.94431,115.94518,BELMONT CITY COLLEGE,1.912850448391944,57.0
1 Litchfield Crescent,Carramar,565000,3,2,2.0,677,190,2005.0,27600,Currambine Station,4700,"01-2018",6031,-31.71023649,115.7965458,JOSEPH BANKS SECONDARY COLLEGE,1.286087618601946,92.0
1 Little Lefroy Lane,South Fremantle,950000,3,2,,270,194,2000.0,16200,Fremantle Station,1900,"07-2020",6162,-32.0676128,115.7545084,FREMANTLE COLLEGE,1.270242671140154,128.0
1 Lorient Close,Warnbro,800000,4,2,4.0,2706,224,1993.0,43300,Warnbro Station,2100,"06-2020",6169,-32.32928,115.74599,LIVING WATERS LUTHERAN COLLEGE,1.7269586073973442,51.0
1 Love Street,Myaree,625000,4,2,,422,149,2001.0,10700,Bull Creek Station,4000,"10-2020",6154,-32.04018283,115.8122838,MELVILLE SENIOR HIGH SCHOOL,0.93724925353864,61.0
1 Luhrs Court,Mundaring,675000,4,2,,2000,189,1996.0,30400,Midland Station,16200,"12-2020",6073,-31.89239,116.17272,MUNDARING CHRISTIAN COLLEGE,0.9999925897545044,
1 Luke Place,Ascot,580000,4,2,2.0,462,185,2003.0,9100,Bassendean Station,2400,"10-2016",6104,-31.92521012,115.9497051,CYRIL JACKSON SENIOR CAMPUS,1.529443412071399,
1 Lundy Cove,Kiara,365000,4,2,1.0,455,128,1992.0,10800,Ashfield Station,3700,"11-2009",6054,-31.87956,115.93454,KIARA COLLEGE,0.2406300621857758,
1 Macdonald Road,Applecross,990000,3,1,4.0,401,84,1966.0,7000,Canning Bridge Station,2100,"07-2017",6153,-32.01132011,115.8343708,APPLECROSS SENIOR HIGH SCHOOL,2.0094986087565623,34.0
1 Mackie Place,Midvale,375000,4,2,1.0,404,121,1998.0,16600,Midland Station,1700,"12-2012",6056,-31.89125,116.01903,YOUTH FUTURES COMMUNITY SCHOOL,1.170150834928759,
1 Maidos Street,Ashfield,358000,3,2,1.0,450,122,1997.0,8100,Ashfield Station,521,"06-2006",6054,-31.91705,115.93365,CYRIL JACKSON SENIOR CAMPUS,0.951161627482916,
1 MAJORELLE WAY,Eglinton,279500,4,2,,510,231,2015.0,43300,Butler Station,5000,"09-2015",6034,-31.5962686,115.6726446,YANCHEP SECONDARY COLLEGE,5.598316988998218,
1 Mal Bay Court,Mindarie,660000,4,1,,712,200,1998.0,31500,Clarkson Station,2400,"09-2020",6030,-31.69765942,115.7136665,YOUTH FUTURES COMMUNITY SCHOOL,0.9353100373987124,
1 Malcolm Street,North Beach,1980000,2,2,1.0,637,114,,14600,Warwick Station,4300,"08-2018",6020,-31.85717835,115.7526601,CARINE SENIOR HIGH SCHOOL,2.239538254155457,47.0
1 Maley Court,Ashfield,435000,4,2,2.0,600,129,1996.0,8500,Ashfield Station,629,"08-2006",6054,-31.91783,115.93908,CYRIL JACKSON SENIOR CAMPUS,0.6337536997532519,
1 Malibu Entrance,Iluka,1500000,5,4,2.0,639,467,2003.0,27000,Currambine Station,2800,"09-2016",6028,-31.73776993,115.7251695,PRENDIVILLE CATHOLIC COLLEGE,2.3290021181206537,60.0
1 Malone Mews,Clarkson,299000,4,2,2.0,758,154,1996.0,33500,Clarkson Station,2700,"09-2019",6030,-31.67738,115.7139,QUINNS BAPTIST COLLEGE,0.374895014947193,118.0
1 Manhattan Concourse,Hilbert,445000,3,2,2.0,302,155,2016.0,27400,Armadale Station,5100,"07-2016",6112,-32.18057352,115.967516,DALE CHRISTIAN SCHOOL,3.771691812464396,
1 Mannaw Place,Hillman,315000,4,2,1.0,709,164,1976.0,38300,Rockingham Station,388,"03-2009",6168,-32.2868,115.76235,KOLBE CATHOLIC COLLEGE,1.094105681151445,97.0
1 Mannix Pass,Queens Park,500000,4,2,2.0,441,160,2002.0,10400,Canning,783,"06-2016",6107,-32.0070209,115.948271,ST NORBERT COLLEGE,0.8039392416059779,42.0
1 Marconi Street,Morley,650000,3,1,2.0,801,240,2008.0,9500,Ashfield Station,2900,"08-2020",6062,-31.888625,115.9260026,HAMPTON SENIOR HIGH SCHOOL,0.2632751886013798,117.0
1 Mardja Loop,Mardella,270000,4,2,,3030,214,2000.0,41300,Armadale Station,17400,"10-2002",6125,-32.30817184,115.9838028,COURT GRAMMAR SCHOOL,4.341164004434704,
1 Margaret Road,Secret Harbour,700000,4,2,3.0,605,250,2007.0,52400,Warnbro Station,9900,"10-2020",6173,-32.4137457,115.7499086,COMET BAY COLLEGE,1.2503996780702538,35.0
1 Marich Cove,Atwell,442000,3,1,2.0,652,115,1994.0,20000,Cockburn Central Station,1000,"07-2019",6164,-32.13147,115.86607,ATWELL COLLEGE,1.400675864704646,129.0
1 Maritana Road,Kallaroo,470000,3,1,2.0,407,100,1978.0,20800,Whitfords Station,3400,"10-2016",6025,-31.79102,115.74804,ST MARK'S ANGLICAN COMMUNITY SCHOOL,0.9636031710496228,58.0
1 Marker Road,Ocean Reef,940250,5,3,2.0,860,330,1988.0,23600,Edgewater Station,3500,"05-2017",6027,-31.76473,115.74294,OCEAN REEF SENIOR HIGH SCHOOL,0.7588981609905694,83.0
1 Markham Place,Bentley,375000,3,1,3.0,504,81,1986.0,8500,Welshpool Station,1300,"05-2018",6102,-32.00646397,115.9217265,ST NORBERT COLLEGE,1.7715423459196555,42.0
1 Maroma Loop,Burns Beach,672500,4,2,2.0,501,209,2012.0,28400,Currambine Station,2000,"01-2019",6028,-31.7222495,115.7296768,LAKE JOONDALUP BAPTIST COLLEGE,3.4477252219055816,80.0
1 Martin Avenue,Rivervale,400000,3,1,,363,90,1966.0,5500,Burswood Station,1700,"08-2020",6103,-31.95561853,115.916921,BELMONT CITY COLLEGE,1.6923949695480145,57.0
1 Mayhill Place,Craigie,445000,3,2,,684,117,1978.0,20100,Whitfords Station,2100,"03-2017",6025,-31.79108,115.76201,ST MARK'S ANGLICAN COMMUNITY SCHOOL,1.9879855239607211,58.0
1 McBain Court,Langford,468000,4,2,2.0,703,184,1970.0,13100,Thornlie Station,730,"02-2018",6147,-32.04082,115.95064,LANGFORD ISLAMIC COLLEGE,1.398161832735592,85.0
1 Mcdermott Road,Kwinana Town Centre,145700,3,2,,206,120,2015.0,32600,Wellard Station,2400,"08-2013",6167,-32.24286002,115.8161455,GILMORE COLLEGE,0.5263698128407971,138.0
1 McKenna Glen,Mount Claremont,1050000,4,2,2.0,476,201,1992.0,7100,Loch Street Station,759,"12-2017",6010,-31.96734,115.78543,JOHN XXIII COLLEGE,0.8275939540060989,8.0
1 McKenzie Corner,Bertram,470000,4,2,2.0,646,279,2005.0,33700,Kwinana Station,2200,"06-2016",6167,-32.254559,115.84725,THE KING'S COLLEGE,0.7693773588668795,
1 McNairn Cross,Leda,325000,4,2,2.0,542,150,,35300,Wellard Station,1100,"06-2015",6170,-32.26589,115.80606,PETER CARNLEY ANGLICAN COMMUNITY SCHOOL,1.2840511203278493,
1 Meadow Place,Hocking,360000,3,1,1.0,680,114,1989.0,21300,Edgewater Station,3300,"07-2020",6065,-31.76526876,115.8128791,WANNEROO SECONDARY COLLEGE,0.8494166623508562,131.0
1 Meares Avenue,Parmelia,220000,4,2,2.0,711,118,2013.0,32300,Wellard Station,2600,"06-2019",6167,-32.24019,115.81652,GILMORE COLLEGE,0.2681288105280506,138.0
1 Mears Way,Hilbert,276000,3,2,,332,143,2015.0,26900,Armadale Station,2300,"03-2015",6112,-32.16528477,115.992528,DALE CHRISTIAN SCHOOL,0.8837128034513028,
1 Medawar Loop,Piara Waters,618000,4,2,,524,202,,20600,Cockburn Central Station,5300,"12-2020",6112,-32.1310864,115.914088,CAREY BAPTIST COLLEGE,2.9642350869158345,62.0
1 Meldrum Loop,Bedfordale,330000,4,3,,4815,315,,30500,Armadale Station,4500,"03-2016",6112,-32.16944266,116.0568073,SOUTHERN HILLS CHRISTIAN COLLEGE,1.5761664875575228,
1 Melissa Street,Duncraig,950000,4,2,2.0,716,245,1983.0,17400,Greenwood Station,1800,"10-2020",6023,-31.81784,115.7646,DUNCRAIG SENIOR HIGH SCHOOL,0.5115552779745092,32.0
1 Melita Drive,Helena Valley,464000,3,2,2.0,276,110,2013.0,16300,Midland Station,3300,"04-2017",6056,-31.91391044,116.0257407,YOUTH FUTURES COMMUNITY SCHOOL,3.0052414634855,
1 Melrose Crescent,Menora,1365000,4,3,3.0,1317,293,1955.0,3200,Perth Station,3100,"05-2018",6050,-31.92307875,115.8602822,MOUNT LAWLEY SENIOR HIGH SCHOOL,0.9173096561099368,20.0
1 Memorial Avenue,Baskerville,1500000,3,1,1.0,54696,100,1974.0,22300,Midland Station,10200,"10-2009",6056,-31.80052281,116.0124171,SWAN VALLEY ANGLICAN COMMUNITY SCHOOL,2.640206935482151,53.0
1 Mercer Place,Thornlie,300000,3,1,2.0,675,90,1975.0,15600,Thornlie Station,2000,"12-2019",6108,-32.06477,115.95752,THORNLIE SENIOR HIGH SCHOOL,0.260842115782858,125.0
1 Merley Crescent,City Beach,1720000,4,2,2.0,840,251,,9000,Swanbourne Station,6500,"07-2019",6015,-31.92445085,115.7696125,NEWMAN COLLEGE,1.6808272958776116,44.0
1 Merlot Court,The Vines,455000,4,2,,706,280,1995.0,26300,Midland Station,15800,"10-2017",6069,-31.75004,116.00258,HOLY CROSS COLLEGE,3.737519633723225,98.0
1 Milina Street,Hillman,278000,3,1,2.0,780,88,1977.0,38300,Rockingham Station,609,"12-2014",6168,-32.28523,115.75853,KOLBE CATHOLIC COLLEGE,0.724888151418659,97.0
1 Mingara Avenue,Harrisdale,1200000,4,3,2.0,753,438,2009.0,19500,Kelmscott Station,7400,"04-2018",6112,-32.11547772,115.9347183,CAREY BAPTIST COLLEGE,0.4391706404462042,62.0
1 Mission Place,Cooloongup,430000,4,2,2.0,802,197,1992.0,38400,Rockingham Station,744,"09-2017",6168,-32.28851,115.769,KOLBE CATHOLIC COLLEGE,1.702445205869365,97.0
1 Moira Mews,Stratton,365000,4,2,2.0,568,125,1995.0,19900,Midland Station,5000,"06-2015",6056,-31.86279,116.04176,SWAN VIEW SENIOR HIGH SCHOOL,2.7569718813721726,
1 Monarch Way,Wattle Grove,486000,3,2,2.0,454,150,2012.0,13800,Madding,5000,"11-2016",6107,-32.00507281,115.9905399,REHOBOTH CHRISTIAN COLLEGE,3.183440720416609,
1 Montana Crescent,Dayton,430000,3,2,2.0,254,124,2014.0,14800,Guildford Station,4600,"09-2015",6055,-31.85779855,115.9686595,KIARA COLLEGE,3.85067415810932,
1 Montrose Way,Nollamara,300000,3,1,1.0,893,98,1992.0,8300,Stirling Station,3500,"07-2020",6061,-31.87969259,115.8371891,DIANELLA SECONDARY COLLEGE,1.681513763003726,
1 Moody Glen,Palmyra,740000,5,2,2.0,534,176,1998.0,12800,Fremantle Station,4000,"09-2019",6157,-32.04923,115.78686,MELVILLE SENIOR HIGH SCHOOL,1.7835103826091017,61.0
1 Moseley Drive,The Vines,859000,4,2,4.0,1638,315,2008.0,24700,Woodbridge Station,14500,"12-2018",6069,-31.76139342,115.9919991,HOLY CROSS COLLEGE,2.155503816184545,98.0
1 Mosman Loop,Success,540000,4,2,2.0,545,199,2010.0,22500,Cockburn Central Station,3500,"08-2019",6164,-32.15405,115.84445,ATWELL COLLEGE,2.168173194774915,129.0
1 Mottee Road,Bateman,778000,4,2,2.0,757,182,1982.0,11600,Murdoch Station,1200,"03-2016",6150,-32.05602,115.84681,CORPUS CHRISTI COLLEGE,0.3837483829070637,28.0
1 Mudalla Way,Koongamia,385000,3,1,1.0,675,91,1959.0,18100,Midland Station,4200,"09-2015",6056,-31.90607,116.04231,SWAN VIEW SENIOR HIGH SCHOOL,2.0766100127695126,
1 Mulberry Lane,Mirrabooka,410000,2,1,1.0,728,83,1988.0,10400,Warwick Station,6900,"02-2015",6061,-31.85864883,115.8671347,JOHN SEPTIMUS ROE ANGLICAN COMMUNITY SCHOOL,0.988504626731202,35.0
1 Mulgrave Loop,Mindarie,610000,5,2,2.0,711,274,2004.0,33600,Clarkson Station,3100,"11-2020",6030,-31.67824124,115.7088917,QUINNS BAPTIST COLLEGE,0.2598455073393086,118.0
1 Myhill Mews,Leda,215000,3,1,1.0,568,110,1993.0,35000,Wellard Station,1400,"08-2017",6170,-32.26273,115.80221,PETER CARNLEY ANGLICAN COMMUNITY SCHOOL,1.3489504259152991,
1 Namoi Street,Hammond Park,595000,4,1,,642,229,2006.0,23500,Cockburn Central Station,4400,"10-2019",6164,-32.16283412,115.8454817,ATWELL COLLEGE,2.7382702315549623,129.0
1 Nardie Place,Hillman,320000,3,1,2.0,682,152,1976.0,38200,Rockingham Station,519,"06-2014",6168,-32.28552,115.76148,KOLBE CATHOLIC COLLEGE,0.9375183314651688,97.0
1 Narla Place,Koongamia,262000,2,1,,751,90,1959.0,17900,Midland Station,3900,"02-2010",6056,-31.90288,116.03947,SWAN VIEW SENIOR HIGH SCHOOL,1.7734872439803744,
1 Nettia Place,Bennett Springs,525000,4,2,2.0,558,198,,11900,Ashfield Station,6000,"09-2014",6063,-31.85995266,115.9231624,KIARA COLLEGE,2.2492609608631016,
1 New Ross Lane,Waterford,1050000,4,2,3.0,606,293,2001.0,7600,Canning Bridge Station,3300,"11-2011",6152,-32.01535,115.89054,CLONTARF ABORIGINAL COLLEGE,0.2314403367013889,
1 Newman Place,Kenwick,370000,7,2,2.0,670,199,1975.0,14800,Madding,1900,"08-2019",6107,-32.03205495,115.9839055,REHOBOTH CHRISTIAN COLLEGE,0.5661079559422498,
1 Newmarket Retreat,Currambine,540000,4,3,2.0,734,169,1998.0,25600,Joondalup Station,1400,"11-2019",6028,-31.74052,115.75349,LAKE JOONDALUP BAPTIST COLLEGE,0.8231101093599166,80.0
1 newquay Street,Harrisdale,462500,4,2,2.0,451,190,2010.0,19600,Cockburn Central Station,6800,"12-2018",6112,-32.11730851,115.929792,CAREY BAPTIST COLLEGE,0.8353692575590184,62.0
1 Niagara Cove,Bentley,438000,5,2,4.0,439,135,1996.0,8100,Welshpool Station,1700,"12-2018",6102,-32.00766186,115.9140864,CANNING COLLEGE,1.6122726567935943,
1 Nicholas Crescent,Hilton,467500,2,1,2.0,900,110,1951.0,15000,Fremantle Station,4000,"12-2015",6163,-32.07035301,115.7819202,SETON CATHOLIC COLLEGE,1.110262846934111,91.0
1 Nobilis Street,Beeliar,500000,4,2,2.0,477,184,2015.0,20700,Cockburn Central Station,4800,"08-2019",6164,-32.13312954,115.8088136,DIVINE MERCY COLLEGE,1.804335272481553,
1 Norfolk Rise,Mount Claremont,1900000,5,2,4.0,969,352,1992.0,7300,Loch Street Station,1300,"09-2019",6010,-31.9633,115.78282,JOHN XXIII COLLEGE,0.4198874367066395,8.0
1 Northerly Avenue,Ascot,854000,3,2,2.0,304,189,2011.0,5900,Bayswater Station,2200,"03-2015",6104,-31.93709715,115.9185057,BELMONT CITY COLLEGE,2.8524954841895083,57.0
1 Nundah Court,Glen Forrest,520000,3,1,2.0,1819,122,,23300,Midland Station,10000,"08-2016",6071,-31.91779,116.10188,HELENA COLLEGE,1.5130458754077822,78.0
1 Nyjong Street,Kenwick,350000,4,2,2.0,431,141,1999.0,15200,Madding,848,"10-2018",6107,-32.04740777,115.9738778,ST FRANCIS' SCHOOL,0.9969782930410068,
1 Oakwood Court,Beechboro,475000,4,2,2.0,594,158,1991.0,11100,Bayswater Station,5600,"06-2017",6063,-31.86783,115.92082,KIARA COLLEGE,1.721706311398858,
1 Oban Court,Duncraig,1115000,4,4,7.0,703,343,1980.0,15200,Greenwood Station,1900,"07-2018",6023,-31.83433,115.77879,GREENWOOD COLLEGE,1.493580155640328,86.0
1 Odell Court,Carine,800000,4,2,4.0,712,120,1977.0,13700,Warwick Station,1400,"12-2016",6020,-31.84761,115.78237,CARINE SENIOR HIGH SCHOOL,0.8595353824985218,47.0
1 Odell Street,Secret Harbour,385000,4,2,2.0,572,209,2005.0,52300,Warnbro Station,10000,"08-2019",6173,-32.416,115.768131,COMET BAY COLLEGE,0.4823109203542586,35.0
1 Odessa Place,Beldon,550000,4,2,,723,148,,21800,Edgewater Station,1400,"08-2015",6027,-31.77401,115.76383,BELRIDGE SECONDARY COLLEGE,0.4080516025468397,102.0
1 Offord Street,Armadale,176500,3,1,1.0,694,109,1977.0,26800,Armadale Station,1200,"11-2019",6112,-32.15956,116.0022,DALE CHRISTIAN SCHOOL,0.3272447647693005,
1 Ollera Meander,Carramar,435000,4,2,2.0,741,187,,27800,Currambine Station,3100,"03-2017",6031,-31.71143,115.77914,JOSEPH BANKS SECONDARY COLLEGE,2.1772039345882086,92.0
1 Ollis Street,Safety Bay,360000,4,1,2.0,931,121,1972.0,41100,Rockingham Station,4300,"02-2018",6169,-32.30174,115.71788,SAFETY BAY SENIOR HIGH SCHOOL,2.177071223403575,136.0
1 O'Mara Boulevard,Iluka,625000,4,2,2.0,355,225,2004.0,27000,Currambine Station,2100,"11-2020",6028,-31.73456015,115.7317112,PRENDIVILLE CATHOLIC COLLEGE,2.361965537002624,60.0
1 Orange Valley Road,Kalamunda,582500,3,1,3.0,1070,86,1930.0,18900,Midland Station,11100,"11-2020",6076,-31.97903,116.05679,KALAMUNDA SENIOR HIGH SCHOOL,0.1399511677407545,107.0
1 Orsulich Loop,Spearwood,408000,3,2,2.0,328,113,,19200,Cockburn Central Station,7400,"08-2020",6163,-32.11159241,115.7812942,PORT SCHOOL,3.1924080152838537,
1 Otway Street,Swanbourne,2302500,5,3,4.0,405,235,1930.0,9000,Swanbourne Station,213,"05-2016",6010,-31.98102,115.76982,SCOTCH COLLEGE,0.3186265703641687,24.0
1 Palos Court,Sorrento,680000,4,2,3.0,607,210,1985.0,17100,Greenwood Station,2300,"05-2020",6020,-31.82421,115.75973,DUNCRAIG SENIOR HIGH SCHOOL,0.7449645325937754,32.0
1 Parish Lane,Churchlands,1400000,4,3,2.0,550,309,2003.0,7100,Glendalough Station,2500,"06-2016",6018,-31.91618,115.79672,CHURCHLANDS SENIOR HIGH SCHOOL,0.6472695052660501,22.0
1 Park Lane,Kardinya,610000,4,2,2.0,549,182,1990.0,13000,Murdoch Station,2300,"11-2019",6163,-32.0659,115.82623,KENNEDY BAPTIST COLLEGE,0.8896739357500936,12.0
1 Parkwood Avenue,Woodvale,554500,3,2,2.0,409,143,1992.0,20400,Edgewater Station,1100,"11-2018",6026,-31.77945863,115.7863487,WOODVALE SECONDARY COLLEGE,1.8297784292650063,77.0
1 Peaceful Close,Marangaroo,420000,4,2,2.0,689,149,1998.0,14600,Greenwood Station,5700,"06-2017",6064,-31.82195,115.84349,ASHDALE SECONDARY COLLEGE,1.164068658295748,75.0
1 Pearson Crescent,Bull Creek,950000,6,3,6.0,691,260,1976.0,12100,Murdoch Station,1800,"12-2017",6149,-32.06045,115.86766,WILLETTON SENIOR HIGH SCHOOL,1.0943632360575952,18.0
1 Pedalstone Drive,Southern River,705000,4,2,,769,271,2008.0,18400,Thornlie Station,6200,"07-2020",6110,-32.10177,115.94081,PROVIDENCE CHRISTIAN COLLEGE,0.4484271555671028,38.0
1 Peet Crescent,Trigg,780000,3,1,1.0,527,102,1974.0,11800,Stirling Station,4300,"07-2016",6029,-31.88597462,115.7608859,ST MARY'S ANGLICAN GIRLS' SCHOOL,1.1220637447873607,7.0
1 Pelion Court,Middle Swan,505000,4,2,2.0,484,184,2010.0,17100,Midland Station,2400,"05-2014",6056,-31.87366996,116.0147774,LA SALLE COLLEGE,1.1206219018171837,53.0
1 Penn Lane,Hammond Park,515000,4,2,2.0,604,215,2003.0,23100,Cockburn Central Station,4000,"01-2020",6164,-32.15997,115.8498,ATWELL COLLEGE,2.235552418338986,129.0
1 Penson Street,Singleton,345000,3,1,5.0,783,112,1990.0,56800,Mandurah Station,8100,"07-2018",6175,-32.45555,115.75736,MANDURAH BAPTIST COLLEGE,2.544459543575357,109.0
1 Pera Mews,Beldon,460000,4,1,2.0,718,120,1987.0,21300,Edgewater Station,2100,"10-2014",6027,-31.78046,115.75923,BELRIDGE SECONDARY COLLEGE,1.1812439944782007,102.0
1 Peter Way,Rossmoyne,1778000,5,3,3.0,950,388,2013.0,10100,Bull Creek Station,1000,"12-2018",6148,-32.04305,115.86412,ROSSMOYNE SENIOR HIGH SCHOOL,0.703482646989984,16.0
1 Piermont Avenue,Burns Beach,900000,4,3,2.0,550,315,2008.0,28200,Currambine Station,1900,"07-2017",6028,-31.72401491,115.7303725,LAKE JOONDALUP BAPTIST COLLEGE,3.296834641262252,80.0
1 Pimelea Rise,Beeliar,495000,4,2,2.0,472,158,,20100,Cockburn Central Station,4100,"11-2018",6164,-32.12854,115.81508,DIVINE MERCY COLLEGE,1.0426117843627016,
1 Pixie Place,Two Rocks,395000,5,2,4.0,536,227,2011.0,55400,Butler Station,17300,"09-2020",6037,-31.504585,115.602387,YANCHEP SECONDARY COLLEGE,6.600989337021355,
1 Platypus Parkway,Beeliar,605000,4,2,2.0,567,217,,20700,Cockburn Central Station,4400,"10-2018",6164,-32.13410411,115.8135413,DIVINE MERCY COLLEGE,1.5156131869524645,
1 Plover Way,Stirling,625000,3,2,3.0,641,164,1980.0,9900,Stirling Station,2100,"08-2020",6021,-31.87561,115.80505,BALCATTA SENIOR HIGH SCHOOL,0.6794950962225728,135.0
1 Poinsettia Grove,South Lake,499000,4,2,2.0,700,216,1994.0,16300,Murdoch Station,3600,"06-2016",6164,-32.09855,115.84578,LAKELAND SENIOR HIGH SCHOOL,1.168552874247075,
1 Point Link,Alkimos,595000,4,2,2.0,631,255,2011.0,42600,Butler Station,4300,"01-2019",6038,-31.60087269,115.6807476,BUTLER COLLEGE,6.239038371744473,39.0
1 Polglase Fairway,Clarkson,379000,4,2,2.0,662,210,1998.0,32100,Clarkson Station,1500,"09-2020",6030,-31.68787,115.72299,YOUTH FUTURES COMMUNITY SCHOOL,0.466255249923369,
1 Portland Way,Ridgewood,520000,4,2,2.0,653,166,2007.0,35100,Clarkson Station,3900,"04-2015",6030,-31.657677,115.724889,ALKIMOS BAPTIST COLLEGE,1.423631163845974,
1 Portsea Gardens,Jandakot,912000,4,3,2.0,593,323,1998.0,16500,Cockburn Central Station,2700,"07-2014",6164,-32.10077,115.85451,LAKELAND SENIOR HIGH SCHOOL,1.2268959525674386,
1 Presto Close,Quinns Rocks,475000,4,2,,607,166,2001.0,35700,Butler Station,3100,"01-2020",6030,-31.66272,115.69709,ALKIMOS BAPTIST COLLEGE,1.2673856056045565,
1 Printer Street,Dianella,560000,2,1,,684,164,1970.0,6800,Mount Lawley Station,4600,"07-2020",6059,-31.89372,115.87927,CARMEL SCHOOL,1.730855862467552,13.0
1 Punai Place,Bickley,1000000,5,3,2.0,60024,236,1990.0,24000,Madding,12800,"06-2009",6076,-32.00298,116.10673,CARMEL ADVENTIST COLLEGE,1.7724716913440637,
1 Pursuit Close,Middle Swan,407000,4,2,1.0,615,136,1992.0,18200,Midland Station,3300,"10-2015",6056,-31.87106,116.02654,SWAN CHRISTIAN COLLEGE,1.9908574259663432,93.0
1 Purvis Street,Hamilton Hill,470000,3,1,5.0,839,108,1960.0,15900,Murdoch Station,5700,"07-2020",6163,-32.08354,115.79319,SETON CATHOLIC COLLEGE,1.2063755022688385,91.0
1 Quail Place,Langford,440000,4,1,1.0,800,116,1985.0,12600,Thornlie Station,1200,"09-2015",6147,-32.03925,115.94447,LANGFORD ISLAMIC COLLEGE,1.0238623828642464,85.0
1 Quenda Close,Beeliar,520000,4,2,2.0,545,211,2000.0,20000,Cockburn Central Station,3900,"02-2019",6164,-32.12801,115.81709,DIVINE MERCY COLLEGE,0.8461243058455717,
1 Ragtime Court,Ascot,440000,3,2,1.0,250,99,1997.0,8700,Bassendean Station,2700,"01-2016",6104,-31.92747,115.94654,CYRIL JACKSON SENIOR CAMPUS,1.6646204177651165,
1 Ramose Close,Heathridge,415000,3,1,1.0,712,96,1979.0,22900,Joondalup Station,2000,"09-2020",6027,-31.76293,115.76445,BELRIDGE SECONDARY COLLEGE,0.8378002149863377,102.0
1 Reflection Mews,Safety Bay,419000,3,2,2.0,741,214,2005.0,41000,Rockingham Station,4100,"07-2019",6169,-32.30085198,115.7197475,SAFETY BAY SENIOR HIGH SCHOOL,2.0129944163763063,136.0
1 Regatta Way,Alkimos,307000,4,2,2.0,370,144,2015.0,42700,Butler Station,4400,"11-2019",6038,-31.60184192,115.6763786,YANCHEP SECONDARY COLLEGE,6.312068284715784,
1 Regent Court,Cockburn Central,515000,3,2,2.0,476,163,2001.0,19500,Cockburn Central Station,1200,"11-2014",6164,-32.12682,115.845827,EMMANUEL CATHOLIC COLLEGE,0.5765101218183685,58.0
1 Reginald Street,Queens Park,670000,5,3,2.0,634,334,2013.0,10600,Canning,1500,"11-2016",6107,-32.00268524,115.9546466,ST NORBERT COLLEGE,1.3619254778833536,42.0
1 Reilly Street,Singleton,330000,3,1,1.0,964,100,1958.0,56100,Mandurah Station,8900,"06-2017",6175,-32.44782,115.75332,MANDURAH BAPTIST COLLEGE,3.4505618834487755,109.0
1 Reinagle Street,Ashby,539000,4,2,4.0,606,267,2006.0,25600,Joondalup Station,3500,"04-2017",6065,-31.72839,115.79846,JOSEPH BANKS SECONDARY COLLEGE,3.3100197782898397,92.0
1 Repens Way,Banksia Grove,370000,4,2,2.0,549,220,2006.0,28500,Clarkson Station,6400,"07-2019",6031,-31.70068425,115.8044033,JOSEPH BANKS SECONDARY COLLEGE,0.7723875905738941,92.0
1 Reserve Street,Bicton,1820000,5,2,3.0,565,344,2000.0,10500,North Fremantle Station,3200,"04-2019",6157,-32.023018,115.785058,SANTA MARIA COLLEGE,1.1272162686002294,10.0
1 Retchford Way,Queens Park,560000,4,2,2.0,463,194,2010.0,10600,Canning,1200,"04-2018",6107,-32.00498497,115.9521355,ST NORBERT COLLEGE,1.114327010900354,42.0
1 Reuben Street,Beaconsfield,590000,3,1,2.0,256,115,1960.0,15700,Fremantle Station,1800,"12-2017",6162,-32.06387863,115.7576047,FREMANTLE COLLEGE,1.075878696391613,128.0
1 Riber Court,Carine,925000,5,3,2.0,741,283,1981.0,12800,Warwick Station,859,"08-2016",6020,-31.85137028,115.7924463,CARINE SENIOR HIGH SCHOOL,1.578618561311068,47.0
1 Richards Crescent,Craigie,440000,3,1,,741,108,1986.0,20800,Edgewater Station,1000,"03-2017",6025,-31.7799,115.77321,BELRIDGE SECONDARY COLLEGE,1.4214889081129316,102.0
1 Rigoll Court,Mundijong,400000,3,1,2.0,873,106,1986.0,39200,Armadale Station,15000,"02-2014",6123,-32.28693,115.98654,COURT GRAMMAR SCHOOL,1.9721644721848837,
1 Ringarooma Way,Willetton,670000,4,2,2.0,764,167,1984.0,12300,Bull Creek Station,4100,"12-2019",6155,-32.05836,115.89553,ONESCHOOL GLOBAL WA,0.6175326385543324,
1 Ringmer Way,Westminster,380000,3,2,2.0,773,104,2007.0,9300,Stirling Station,4400,"11-2016",6061,-31.87030004,115.8414049,DIANELLA SECONDARY COLLEGE,1.547316043639251,
1 River Bank Boulevard,South Guildford,750000,4,2,2.0,632,224,,13600,East Guildford Station,677,"08-2015",6055,-31.89746,115.9871,GUILDFORD GRAMMAR SCHOOL,0.6220398906172178,52.0
1 River Bed Pass,Wilson,765000,4,2,2.0,722,181,1994.0,9600,Welshpool Station,3800,"08-2019",6107,-32.02723,115.90929,FOUNTAIN COLLEGE,1.442847010696083,
1 Riverdale Road,Helena Valley,415000,4,2,2.0,626,154,1994.0,16600,Midland Station,3800,"12-2018",6056,-31.916209,116.029513,YOUTH FUTURES COMMUNITY SCHOOL,3.425776838193197,
1 Robert Street,Dalkeith,1700000,3,2,2.0,809,210,1964.0,7800,Loch Street Station,2300,"02-2016",6009,-31.99276,115.79193,CHRIST CHURCH GRAMMAR SCHOOL,1.6267896108306543,3.0
1 Robyn Street,Morley,520000,3,1,2.0,742,293,1964.0,8100,Maylands Station,5000,"12-2019",6062,-31.88360862,115.8882252,MORLEY SENIOR HIGH SCHOOL,1.181414915024298,100.0
1 ROKER Way,Brabham,344000,3,2,2.0,323,119,,18100,Guildford Station,9000,"11-2018",6055,-31.81819146,115.9677547,SWAN VALLEY ANGLICAN COMMUNITY SCHOOL,3.1359064556606566,53.0
1 Romani Court,Lockridge,400000,4,2,2.0,418,108,1999.0,11200,Bassendean Station,2100,"05-2015",6054,-31.885,115.9474,KIARA COLLEGE,1.4335275227247597,
1 Rosalind Court,Rossmoyne,1110000,4,2,2.0,877,226,1970.0,9900,Bull Creek Station,1700,"12-2018",6148,-32.04082519,115.870132,ROSSMOYNE SENIOR HIGH SCHOOL,0.6062939826684234,16.0
1 Rose Bay Court,Kallaroo,1150000,4,3,2.0,868,285,1992.0,21700,Edgewater Station,4300,"01-2016",6025,-31.78729,115.7368,ST MARK'S ANGLICAN COMMUNITY SCHOOL,1.3714454229593005,58.0
1 ROSTRATUS Link,Dayton,480000,3,2,2.0,395,146,2015.0,14800,East Guildford Station,3900,"11-2016",6055,-31.86142468,115.9726678,GOVERNOR STIRLING SENIOR HIGH SCHOOL,3.4189441874976167,130.0
1 Rothsay Crescent,Menora,915000,3,1,1.0,745,118,1952.0,3800,Mount Lawley Station,2500,"04-2016",6050,-31.9183976,115.8629971,MOUNT LAWLEY SENIOR HIGH SCHOOL,0.7107157941667096,20.0
1 Rowe Place,Noranda,620000,3,2,2.0,801,150,2016.0,8600,Mount Lawley Station,6400,"05-2017",6062,-31.87743947,115.8802942,MORLEY SENIOR HIGH SCHOOL,0.5225637359935131,100.0
1 Royal Melbourne Avenue,Connolly,705000,4,2,2.0,774,211,1990.0,24400,Joondalup Station,1700,"07-2020",6027,-31.75275,115.75204,PRENDIVILLE CATHOLIC COLLEGE,1.18822841424473,60.0
1 Royce Grove,Booragoon,932000,2,1,2.0,786,205,1982.0,10400,Bull Creek Station,2500,"10-2020",6154,-32.04205,115.82814,APPLECROSS SENIOR HIGH SCHOOL,1.5546002465969226,34.0
1 Ruby Avenue,Langford,482000,4,2,4.0,749,138,2000.0,11900,Canning,2300,"05-2015",6147,-32.03383,115.94082,LANGFORD ISLAMIC COLLEGE,1.403009873635924,85.0
1 Ruby Court,Mount Richon,589000,5,2,1.0,1606,202,1987.0,27900,Armadale Station,1200,"01-2015",6112,-32.159955,116.0238033,ARMADALE SENIOR HIGH SCHOOL,0.9069222133741924,
1 Rudge Place,Lockridge,320000,3,1,1.0,475,93,1972.0,11900,Success Hill Station,1800,"06-2014",6054,-31.88383025,115.9552588,KIARA COLLEGE,2.0320062207583622,
1 Sabro Lane,Caversham,463000,3,2,2.0,429,170,,14100,Guildford Station,3600,"12-2016",6055,-31.86622648,115.9683871,GOVERNOR STIRLING SENIOR HIGH SCHOOL,3.178264123481751,130.0
1 Salamanca Parkway,Port Kennedy,345000,3,2,2.0,604,242,,45800,Warnbro Station,3200,"03-2019",6172,-32.35546,115.76469,WARNBRO COMMUNITY HIGH SCHOOL,1.2192581903739237,
1 Salisbury Road,Beechboro,350000,4,1,1.0,539,110,1975.0,11400,Ashfield Station,4600,"01-2017",6063,-31.87159,115.9329,KIARA COLLEGE,0.6840753228336295,
1 Salmond Way,Bull Creek,802000,4,2,,775,249,1990.0,10900,Bull Creek Station,807,"10-2017",6149,-32.0499631,115.8619822,ALL SAINTS' COLLEGE,0.4783829030329998,21.0
1 Salvin Road,Gwelup,820000,4,2,2.0,302,205,2011.0,10400,Stirling Station,2300,"07-2015",6018,-31.87505528,115.7967669,BALCATTA SENIOR HIGH SCHOOL,1.4627123385987622,135.0
1 Samos Place,Mindarie,790000,4,2,3.0,729,329,1995.0,32400,Clarkson Station,2800,"12-2018",6030,-31.69037,115.7087,YOUTH FUTURES COMMUNITY SCHOOL,1.058426878460361,
1 Sandalford Drive,Beldon,504000,3,1,1.0,690,120,1983.0,21400,Edgewater Station,711,"12-2015",6027,-31.77478,115.77203,BELRIDGE SECONDARY COLLEGE,0.9695915684992732,102.0
1 Sandridge Street,Banksia Grove,330000,3,2,2.0,268,135,,29600,Clarkson Station,6600,"10-2017",6031,-31.68985631,115.8080169,JOSEPH BANKS SECONDARY COLLEGE,1.4599007766484091,92.0
1 Sandringham Street,Trigg,1051000,3,2,2.0,817,145,1972.0,11900,Stirling Station,4300,"04-2017",6029,-31.88519996,115.7610159,ST MARY'S ANGLICAN GIRLS' SCHOOL,1.0399975342353611,7.0
1 Sapium Way,Woodvale,565000,4,2,4.0,546,204,,18500,Whitfords Station,1400,"04-2019",6026,-31.79484,115.79616,WOODVALE SECONDARY COLLEGE,0.4816010365970124,77.0
1 Scarcliffe Way,Carine,1125000,5,3,,980,211,1988.0,14000,Warwick Station,2800,"11-2017",6020,-31.85297,115.76803,CARINE SENIOR HIGH SCHOOL,0.7386416604378814,47.0
1 Scott Street,Kewdale,472000,3,2,2.0,331,139,2009.0,8000,Queens Park Station,3500,"08-2017",6105,-31.97556419,115.9386716,AUSTRALIAN ISLAMIC COLLEGE - KEWDALE,0.7605823264767081,102.0
1 Seabreeze Avenue,Burns Beach,860000,4,2,2.0,653,361,,28400,Currambine Station,2800,"06-2020",6028,-31.72319147,115.7203563,YOUTH FUTURES COMMUNITY SCHOOL,3.5698434919518585,
1 Seaflight Court,Heathridge,560000,5,2,2.0,904,159,1997.0,23700,Joondalup Station,1400,"11-2019",6027,-31.75619,115.76207,BELRIDGE SECONDARY COLLEGE,1.5822397317172547,102.0
1 Searle Road,Ardross,1390000,6,3,3.0,527,327,2006.0,9200,Bull Creek Station,2700,"10-2017",6153,-32.03168,115.8318,APPLECROSS SENIOR HIGH SCHOOL,0.4023963886005677,34.0
1 Sedge Link,Atwell,520000,4,2,2.0,558,255,2004.0,21900,Cockburn Central Station,2900,"10-2018",6164,-32.1485618,115.8709936,ATWELL COLLEGE,0.8235373913257277,129.0
1 Sellenger Avenue,Samson,462000,4,2,2.0,710,178,1981.0,14000,Murdoch Station,4700,"05-2011",6163,-32.06761721,115.8008833,SETON CATHOLIC COLLEGE,0.905789101066374,91.0
1 Seton Lane,Kinross,550000,4,2,2.0,725,231,1999.0,29000,Currambine Station,2200,"01-2017",6028,-31.71612,115.72981,YOUTH FUTURES COMMUNITY SCHOOL,2.9382355943735607,
1 Shackleton Street,Bassendean,600000,3,2,2.0,535,131,1923.0,9600,Bassendean Station,672,"02-2020",6054,-31.90961,115.94662,CYRIL JACKSON SENIOR CAMPUS,0.537253034757214,
1 Sheppard Way,Marmion,1480000,4,3,2.0,708,428,1980.0,15600,Warwick Station,4000,"02-2017",6020,-31.84399,115.75399,SACRED HEART COLLEGE,1.976972542584256,19.0
1 Shiralee Bend,Carramar,650000,4,2,2.0,631,249,2006.0,27500,Currambine Station,4700,"03-2017",6031,-31.71055,115.79688,JOSEPH BANKS SECONDARY COLLEGE,1.321235106892812,92.0
1 Shoal Court,Coogee,710000,4,2,2.0,885,182,1990.0,21200,Cockburn Central Station,8300,"11-2020",6166,-32.12684,115.77035,PORT SCHOOL,4.93245752951299,
1 Short Street,North Beach,912000,3,1,3.0,552,70,1973.0,14000,Warwick Station,4400,"10-2018",6020,-31.86238,115.75471,ST MARY'S ANGLICAN GIRLS' SCHOOL,1.954761003896615,7.0
1 Silica Road,Wattle Grove,491000,4,2,2.0,531,22,,12800,Madding,6200,"06-2016",6107,-31.99363062,115.9856234,DARLING RANGE SPORTS COLLEGE,3.1086735873099247,137.0
1 Silky Lane,Wandi,303000,4,1,,437,199,2016.0,27600,Kwinana Station,4300,"02-2015",6167,-32.19984019,115.8607572,GILMORE COLLEGE,6.0801531678601135,138.0
1 Simon Place,City Beach,1450000,3,1,,993,200,1968.0,9500,Grant Street Station,7000,"11-2019",6015,-31.92376,115.7645,NEWMAN COLLEGE,2.158594078307251,44.0
1 Sistina Road,Ashby,450000,4,2,2.0,598,226,2006.0,24600,Joondalup Station,3200,"02-2015",6065,-31.73741,115.79968,WANNEROO SECONDARY COLLEGE,2.7053555562171696,131.0
1 Skottowe Parkway,Parmelia,272000,3,1,2.0,680,119,,34100,Wellard Station,911,"11-2016",6167,-32.25716,115.82251,PETER CARNLEY ANGLICAN COMMUNITY SCHOOL,0.7144777108761272,
1 Skye Lane,Ellenbrook,320000,3,2,2.0,386,150,2008.0,23200,East Guildford Station,14200,"04-2020",6069,-31.76905861,115.9753687,HOLY CROSS COLLEGE,0.4721097284999742,98.0
1 Smailes Elbow,Brookdale,228750,3,2,2.0,385,133,2013.0,28000,Armadale Station,2000,"07-2013",6112,-32.17057292,116.0057903,ARMADALE SENIOR HIGH SCHOOL,1.2893892871623016,
1 Smitherson Street,Noranda,585000,5,3,6.0,685,286,1989.0,9400,Maylands Station,6300,"11-2018",6062,-31.87154,115.89044,MORLEY SENIOR HIGH SCHOOL,0.6838648953567505,100.0
1 Smullin Street,Hamilton Hill,470000,3,2,4.0,448,104,1999.0,16500,Fremantle Station,4100,"03-2020",6163,-32.08078,115.77248,PORT SCHOOL,0.5993334759549509,
1 SNOWY RISE,Hammond Park,445000,4,2,2.0,581,205,2004.0,23500,Cockburn Central Station,4400,"08-2020",6164,-32.1635692,115.8484775,ATWELL COLLEGE,2.6336333590718546,129.0
1 Solly Court,Bull Creek,1300000,6,3,2.0,847,302,1978.0,11300,Bull Creek Station,1400,"01-2018",6149,-32.05328,115.86667,ALL SAINTS' COLLEGE,0.4250922597646744,21.0
1 Spargo Street,Myaree,765000,4,2,4.0,437,181,2000.0,10500,Bull Creek Station,3400,"05-2017",6154,-32.04014104,115.8187311,MELVILLE SENIOR HIGH SCHOOL,1.427004203377802,61.0
1 Spring Hill,Tapping,597000,4,2,2.0,554,202,2008.0,26100,Currambine Station,3900,"11-2020",6065,-31.72506041,115.7913728,JOSEPH BANKS SECONDARY COLLEGE,2.9761883258701167,92.0
1 Spruce Place,Thornlie,490000,4,2,2.0,612,230,1997.0,14900,Thornlie Station,2100,"01-2019",6108,-32.0647,115.9436,THORNLIE SENIOR HIGH SCHOOL,1.5221663828656011,125.0
1 Spruce Terrace,Aubin Grove,512888,4,2,4.0,516,160,2009.0,24900,Cockburn Central Station,5700,"06-2018",6164,-32.17607691,115.8595407,ATWELL COLLEGE,3.5989366250437187,129.0
1 St Fillans Bend,Wanneroo,465000,4,2,2.0,632,205,2000.0,19900,Edgewater Station,2800,"12-2019",6065,-31.77821,115.80773,ALTA-1,0.9556014549509046,
1 St Ives Loop,Kallaroo,2195000,4,4,4.0,1000,477,2009.0,21100,Whitfords Station,4300,"03-2016",6025,-31.79387,115.73713,ST MARK'S ANGLICAN COMMUNITY SCHOOL,0.7473493072078646,58.0
1 Staniland Street,Orange Grove,899000,4,2,4.0,17524,324,2012.0,18200,Madding,3200,"05-2017",6109,-32.04728719,116.0161648,LUMEN CHRISTI COLLEGE,2.268353490008103,122.0
1 Stephen Street,Queens Park,480000,3,3,2.0,305,180,2015.0,10200,Canning,1100,"03-2016",6107,-32.0038586,115.9476433,ST NORBERT COLLEGE,0.6907651728253007,42.0
1 Stitfold Promenade,Salter Point,1300000,4,2,4.0,542,319,2002.0,7400,Canning Bridge Station,978,"03-2018",6152,-32.01832,115.85814,AQUINAS COLLEGE,0.9378442285304996,23.0
1 Stokesay Street,Orelia,418000,5,2,2.0,594,209,2006.0,31100,Kwinana Station,2100,"06-2016",6167,-32.229927,115.821234,GILMORE COLLEGE,1.107452889188423,138.0
1 Strathmore Parkway,Ellenbrook,350000,4,2,2.0,360,183,2006.0,22800,East Guildford Station,14000,"12-2020",6069,-31.771121,115.972418,HOLY CROSS COLLEGE,0.257266849109087,98.0
1 Strathpine Chase,Landsdale,575000,4,2,2.0,699,256,2005.0,15600,Greenwood Station,7600,"12-2019",6065,-31.81223,115.86368,LANDSDALE CHRISTIAN SCHOOL,0.6894708483052716,
1 Strelley Lane,Carramar,512600,4,2,2.0,675,227,2002.0,27900,Currambine Station,3400,"04-2020",6031,-31.71053,115.78255,JOSEPH BANKS SECONDARY COLLEGE,1.87203996179804,92.0
1 Stretton Way,Kenwick,275000,3,1,1.0,659,90,1972.0,14800,Kenwick Station,894,"11-2017",6107,-32.03748,115.97882,REHOBOTH CHRISTIAN COLLEGE,0.6573576810441265,
1 Strickland Court,Coogee,770000,6,2,4.0,705,268,1988.0,20000,Cockburn Central Station,7900,"11-2018",6166,-32.11715,115.77514,PORT SCHOOL,3.809290267061889,
1 Styne Road,City Beach,1800000,4,2,2.0,736,230,1974.0,9700,Grant Street Station,6800,"04-2018",6015,-31.92540258,115.7613588,NEWMAN COLLEGE,2.4664550186730927,44.0
1 Success Crescent,Salter Point,1555000,4,2,2.0,876,363,2002.0,7700,Canning Bridge Station,1400,"11-2016",6152,-32.02154,115.85944,AQUINAS COLLEGE,0.5598437933587753,23.0
1 Sumich Gardens,Coogee,715000,4,2,2.0,620,204,,19300,Fremantle Station,7000,"09-2015",6166,-32.10983,115.77297,PORT SCHOOL,3.025173538108212,
1 Swallow Grove,Waikiki,360000,3,1,1.0,693,121,1992.0,41400,Warnbro Station,2600,"12-2020",6169,-32.31177,115.74693,SOUTH COAST BAPTIST COLLEGE,1.071249861246405,
1 Sweeney Way,Padbury,579000,4,1,1.0,697,106,1972.0,19600,Whitfords Station,2600,"09-2017",6025,-31.79957,115.75498,ST MARK'S ANGLICAN COMMUNITY SCHOOL,1.1508638381231906,58.0
1 Talisker Mews,Ballajura,420000,5,2,2.0,585,187,1994.0,12900,Bayswater Station,8000,"07-2018",6066,-31.84665,115.91469,BALLAJURA COMMUNITY COLLEGE,2.0194878761795336,133.0
1 Tall Karri Close,Camillo,370000,4,2,3.0,695,135,1993.0,22800,Kelmscott Station,941,"02-2016",6111,-32.11623105,116.0039761,KELMSCOTT SENIOR HIGH SCHOOL,0.8859419954907526,113.0
1 Tattler Place,Huntingdale,323000,3,1,2.0,754,139,1990.0,17900,Seaforth Station,4100,"07-2019",6110,-32.08391766,115.968026,SOUTHERN RIVER COLLEGE,1.1361827373150335,121.0
1 Taylor Street,White Gum Valley,845000,5,2,2.0,519,171,1910.0,14600,Fremantle Station,2900,"01-2016",6162,-32.06176,115.77392,FREMANTLE COLLEGE,0.8839941621762997,128.0
1 Teetree Court,Beechboro,500000,5,2,2.0,706,164,1990.0,11300,Ashfield Station,5300,"12-2017",6063,-31.8662,115.92272,KIARA COLLEGE,1.7126578548657636,
1 Temple Mews,Iluka,928250,4,3,2.0,822,257,2010.0,26600,Currambine Station,2600,"09-2016",6028,-31.74,115.72891,PRENDIVILLE CATHOLIC COLLEGE,1.9251252257536915,60.0
1 Tenella Mews,Warnbro,300000,4,2,2.0,532,140,1993.0,44200,Warnbro Station,1600,"06-2019",6169,-32.34082,115.76518,WARNBRO COMMUNITY HIGH SCHOOL,0.7783907259369569,
1 Tennyson Street,Bellevue,400000,3,1,1.0,934,124,1950.0,17500,Midland Station,3100,"01-2016",6056,-31.89756,116.03252,SWAN VIEW SENIOR HIGH SCHOOL,1.5817453595738122,
1 Tetbury Road,Butler,500000,4,2,2.0,535,150,2003.0,36200,Butler Station,2100,"12-2020",6036,-31.65352168,115.7064859,IRENE MCCORMACK CATHOLIC COLLEGE,0.286937682273597,120.0
1 The Mead,Kiara,450000,4,2,4.0,535,150,1994.0,10900,Ashfield Station,3700,"09-2009",6054,-31.87955,115.93667,KIARA COLLEGE,0.2767324668594733,
1 The Mews,Kardinya,730000,4,2,2.0,700,187,1994.0,12500,Murdoch Station,2800,"08-2017",6163,-32.06032,115.82225,KENNEDY BAPTIST COLLEGE,1.608917800317356,12.0
1 Thomas Hamilton Avenue,Mirrabooka,450000,4,2,,516,204,2001.0,9400,Mount Lawley Station,7600,"07-2020",6061,-31.86795,115.86599,ST ANDREW'S GRAMMAR,0.8467373080506415,
1 Thorman Place,Booragoon,905000,4,2,2.0,829,215,2012.0,9100,Bull Creek Station,1900,"09-2019",6154,-32.03310283,115.8419184,APPLECROSS SENIOR HIGH SCHOOL,0.7657905863572948,34.0
1 Thornbill Loop,Beeliar,429000,4,2,1.0,435,118,1996.0,20000,Cockburn Central Station,3300,"03-2017",6164,-32.12948,115.82358,DIVINE MERCY COLLEGE,0.5538227845173325,
1 Thurlow Avenue,Yokine,525000,3,1,,386,117,1957.0,5700,Glendalough Station,3400,"10-2020",6060,-31.9010744,115.8557645,CARMEL SCHOOL,0.6347913316940405,13.0
1 Till Street,Herne Hill,370000,3,1,1.0,808,100,1970.0,20900,Midland Station,7600,"06-2014",6056,-31.82556,116.02173,SWAN CHRISTIAN COLLEGE,3.762411964593397,93.0
1 Tintern Road,Ashby,465000,3,2,2.0,298,128,2006.0,24700,Joondalup Station,3300,"04-2015",6065,-31.73707065,115.8001464,WANNEROO SECONDARY COLLEGE,2.713893578773914,131.0
1 Tippett Court,Willetton,680000,4,2,2.0,686,193,1992.0,12600,Murdoch Station,4400,"10-2019",6155,-32.06054,115.89665,ONESCHOOL GLOBAL WA,0.6527809344187114,
1 Tiwi Court,Iluka,826000,4,2,2.0,688,257,2000.0,27400,Currambine Station,1800,"12-2018",6028,-31.73075,115.73307,PRENDIVILLE CATHOLIC COLLEGE,2.7346606780861684,60.0
1 Tolbury Retreat,Kiara,420000,4,2,4.0,653,143,1994.0,11100,Bassendean Station,2400,"07-2018",6054,-31.88237,115.94231,KIARA COLLEGE,0.8736813843124758,
1 Torre Link,Darch,560000,4,2,4.0,518,218,2010.0,15100,Greenwood Station,6500,"02-2017",6065,-31.816573,115.851355,ASHDALE SECONDARY COLLEGE,1.082445552370362,75.0
1 Torridon Loop,Wanneroo,725000,4,2,2.0,740,243,1997.0,20200,Edgewater Station,2800,"06-2018",6065,-31.77572,115.8076,ALTA-1,1.20177668185776,
1 Treaty Oak Cove,Bibra Lake,600000,4,2,2.0,830,300,1995.0,16000,Murdoch Station,4400,"01-2019",6163,-32.09059,115.81411,PERTH WALDORF SCHOOL,0.3788234792325498,
1 Treave Street,Cloverdale,450000,3,2,2.0,311,134,2003.0,8000,Queens Park Station,4100,"07-2017",6105,-31.97036143,115.940989,AUSTRALIAN ISLAMIC COLLEGE - KEWDALE,1.3358834215117643,102.0
1 Triller Road,Bennett Springs,515000,4,2,2.0,515,164,2009.0,12400,Ashfield Station,6200,"08-2015",6063,-31.85787729,115.9286816,KIARA COLLEGE,2.2598647742147198,
1 Trilogy Court,The Vines,1030000,4,3,4.0,1545,458,2001.0,24300,Woodbridge Station,14000,"04-2019",6069,-31.76598,115.99372,HOLY CROSS COLLEGE,2.040514571775189,98.0
1 Trona Place,Forrestfield,395000,4,2,2.0,572,158,1994.0,13000,Madding,6800,"09-2018",6058,-31.98870201,115.9899781,DARLING RANGE SPORTS COLLEGE,2.4465347731708103,137.0
1 Tropicana Way,Safety Bay,753000,5,3,4.0,856,375,1994.0,41700,Rockingham Station,3400,"07-2019",6169,-32.31132,115.73453,SAFETY BAY SENIOR HIGH SCHOOL,1.0790796814350994,136.0
1 Troy Avenue,Marmion,1600000,4,2,2.0,899,277,1979.0,15800,Warwick Station,4200,"07-2011",6020,-31.84345,115.75221,SACRED HEART COLLEGE,1.8661169190209312,19.0
1 Tucker Street,Medina,270000,4,1,4.0,931,106,1969.0,31600,Kwinana Station,4100,"08-2015",6167,-32.2316,115.79954,GILMORE COLLEGE,1.616151409765193,138.0
1 Tuckeroo Parade,Helena Valley,785000,4,2,2.0,983,249,,16400,Midland Station,3400,"01-2015",6056,-31.9138053,116.0261016,YOUTH FUTURES COMMUNITY SCHOOL,3.016458993367205,
1 Tullow Road,Floreat,1575000,5,3,3.0,971,219,1972.0,7500,Claremont Station,4900,"09-2020",6014,-31.93726426,115.7814837,NEWMAN COLLEGE,1.660092704596955,44.0
1 Turner Parkway,Carramar,479100,4,3,2.0,624,193,2006.0,27500,Currambine Station,4700,"04-2019",6031,-31.71046806,115.7975779,JOSEPH BANKS SECONDARY COLLEGE,1.3151576897514798,92.0
1 Turner Street,Warnbro,310000,3,1,1.0,872,138,1980.0,43800,Warnbro Station,2000,"11-2019",6169,-32.33464,115.74926,LIVING WATERS LUTHERAN COLLEGE,1.0562147659747263,51.0
1 TWIN VIEW,Swan View,595000,4,2,4.0,869,324,2001.0,20200,Midland Station,5200,"11-2018",6056,-31.87482,116.05267,SWAN VIEW SENIOR HIGH SCHOOL,1.6133082700318606,
1 Umina Street,High Wycombe,296000,2,1,2.0,764,84,1971.0,14200,Midland Station,5300,"04-2018",6057,-31.93901263,116.0088239,DARLING RANGE SPORTS COLLEGE,4.080875846409961,137.0
1 Valencia Avenue,Churchlands,935000,3,2,2.0,497,214,1999.0,8000,Glendalough Station,3600,"11-2015",6018,-31.91611563,115.7854829,CHURCHLANDS SENIOR HIGH SCHOOL,0.4451374620664194,22.0
1 Valencia Road,Carmel,670000,4,2,3.0,3104,198,1973.0,23600,Madding,11100,"11-2009",6076,-32.01964,116.09531,CARMEL ADVENTIST COLLEGE,0.5590733639113845,
1 Valley Close,Canning Vale,1200000,5,2,6.0,10000,290,1988.0,15400,Murdoch Station,5400,"10-2019",6155,-32.08516,115.90319,CANNING VALE COLLEGE,1.863313138951007,68.0
1 Vantage Way,Burswood,1585000,4,2,,301,233,2015.0,3700,Burswood Station,313,"12-2015",6100,-31.95795076,115.8974433,TRINITY COLLEGE,1.4238511118517383,43.0
1 Veldt Mews,Mirrabooka,370000,3,1,1.0,677,95,1990.0,11200,Warwick Station,6900,"08-2016",6061,-31.85177,115.86838,MERCY COLLEGE,1.139660013811396,46.0
1 Venetian Way,Baldivis,435000,4,2,2.0,526,224,2014.0,40600,Wellard Station,5700,"09-2020",6171,-32.3154684,115.8168636,BALDIVIS SECONDARY COLLEGE,2.3396144294758545,134.0
1 Verve Court,Marmion,1255000,5,3,2.0,459,192,2011.0,15800,Warwick Station,4100,"08-2017",6020,-31.84166857,115.7533065,SACRED HEART COLLEGE,1.7129254382916923,19.0
1 Vilamour Close,Currambine,582000,4,2,2.0,773,228,1991.0,25900,Currambine Station,1800,"07-2017",6028,-31.74087,115.74556,LAKE JOONDALUP BAPTIST COLLEGE,1.54713303493994,80.0
1 Viola Place,Beechboro,485000,4,2,4.0,500,160,1997.0,11100,Ashfield Station,5100,"02-2019",6063,-31.86855,115.9236,KIARA COLLEGE,1.469640840506995,
1 Violet Street,Middle Swan,410000,3,1,1.0,830,130,1970.0,16300,Midland Station,1600,"07-2014",6056,-31.87861,116.00864,LA SALLE COLLEGE,0.3994665079149024,53.0
1 Virgilia Terrace,South Lake,565000,4,2,3.0,708,181,1989.0,16900,Cockburn Central Station,2500,"10-2017",6164,-32.10389,115.84902,LAKELAND SENIOR HIGH SCHOOL,0.6447688800176169,
1 Voyager Link,Pearsall,449000,3,3,2.0,318,250,2011.0,18900,Whitfords Station,4400,"10-2016",6065,-31.78514118,115.8253031,ALTA-1,1.1339735841748075,
1 Wake Court,Redcliffe,390000,3,1,2.0,416,126,1994.0,8300,Ashfield Station,3200,"11-2016",6104,-31.94074,115.94536,BELMONT CITY COLLEGE,2.267053691441043,57.0
1 Wallace Street,Mundijong,640000,4,2,,1999,206,2000.0,39700,Armadale Station,15800,"05-2017",6123,-32.29332,115.98001,COURT GRAMMAR SCHOOL,2.8372635366680816,
1 Wambiri Close,South Lake,510000,4,2,2.0,517,177,2005.0,17900,Cockburn Central Station,2100,"03-2016",6164,-32.11270143,115.8414863,LAKELAND SENIOR HIGH SCHOOL,0.5817935628642769,
1 Warlu Place,High Wycombe,315000,4,2,2.0,620,141,2002.0,13500,Midland Station,4800,"12-2018",6057,-31.93469,116.00074,DARLING RANGE SPORTS COLLEGE,4.656154348388348,137.0
1 Warnt Court,South Guildford,430000,4,2,2.0,742,154,1998.0,12800,East Guildford Station,2300,"02-2017",6055,-31.91635,115.98744,GUILDFORD GRAMMAR SCHOOL,2.5366672181024925,52.0
1 Waterway Crescent,Ascot,1250000,4,2,3.0,556,322,2001.0,5800,Bayswater Station,2200,"02-2016",6104,-31.93687,115.91779,BELMONT CITY COLLEGE,2.9099035276456857,57.0
1 Wattle Court,Mahogany Creek,740000,4,2,2.0,2001,212,1997.0,27100,Midland Station,13100,"07-2014",6072,-31.90238,116.1394,MUNDARING CHRISTIAN COLLEGE,3.8810211159930974,
1 Waugh Court,North Lake,1150000,5,2,4.0,855,416,,14400,Murdoch Station,3200,"09-2013",6163,-32.077,115.81942,NORTH LAKE SENIOR CAMPUS,0.6615449223729546,
1 Wayford Circle,Hocking,595000,4,2,2.0,622,241,2004.0,20800,Edgewater Station,3300,"11-2016",6065,-31.76976,115.81382,WANNEROO SECONDARY COLLEGE,1.3276109414076789,131.0
1 Webb Street,Rossmoyne,670000,3,1,,531,115,1967.0,10000,Bull Creek Station,1300,"02-2015",6148,-32.0421094,115.8669182,ROSSMOYNE SENIOR HIGH SCHOOL,0.5749748353860907,16.0
1 Weema Court,Swan View,560000,6,3,2.0,1068,302,1990.0,18700,Midland Station,4000,"02-2020",6056,-31.89084,116.04309,SWAN VIEW SENIOR HIGH SCHOOL,0.3917926292021659,
1 Weetman Cove,Cannington,402600,3,2,2.0,281,120,1998.0,9000,Queens Park Station,733,"07-2016",6107,-32.00447,115.9314,ST NORBERT COLLEGE,0.8437413904934831,42.0
1 Wendo Court,Hillman,345000,4,1,1.0,693,101,1986.0,38200,Rockingham Station,555,"10-2013",6168,-32.28523,115.76052,KOLBE CATHOLIC COLLEGE,0.8490425628350073,97.0
1 Wenstead Place,Stratton,357000,4,3,1.0,686,103,1993.0,19500,Midland Station,4500,"10-2015",6056,-31.86627,116.03828,SWAN VIEW SENIOR HIGH SCHOOL,2.427462168092539,
1 Werri Place,Clarkson,378000,3,2,2.0,344,151,2006.0,31300,Clarkson Station,755,"07-2020",6030,-31.69303,115.73056,YOUTH FUTURES COMMUNITY SCHOOL,1.0361006231232044,
1 Wescap Rise,Merriwa,300000,4,1,1.0,684,121,1989.0,34200,Clarkson Station,3300,"09-2018",6030,-31.67151,115.71105,QUINNS BAPTIST COLLEGE,0.5263353275872161,118.0
1 Whelk Place,Mullaloo,775000,3,2,3.0,706,244,1995.0,22400,Edgewater Station,3300,"11-2020",6027,-31.77578,115.74413,BELRIDGE SECONDARY COLLEGE,1.8983783649352688,102.0
1 White Place,Subiaco,753000,3,2,,261,118,1988.0,2500,West Leederville Station,119,"10-2020",6008,-31.94306086,115.8343902,PERTH MODERN SCHOOL,0.2925380375866991,1.0
